stop_lat,wheelchair_boarding,stop_code,stop_lon,stop_id,stop_url,parent_station,stop_desc,stop_name,location_type,zone_id
42.281653,0,1587,-83.747196,723,,,N 4th Ave & E Huron,E- N Fourth Ave north of E Huron,0,
42.239328,0,1830,-83.62193,965,,,W Michigan Ave & W Ainsworth St,S- Michigan Ave. east of Ainsworth,0,
42.249792,0,1214,-83.655152,355,,,Washtenaw Ave & Boston Ave,N- Washtenaw Ave. opp Welman,0,
42.287731,0,2026,-83.707022,1160,,,2800 Glazier Way & Huron Pkwy,S- Glazier Way btw Beal and Huron,0,
42.249314,0,2766,-83.742064,1948,,,State St Park & Ride,Mid Lot North Side,0,
42.249162,0,2767,-83.742125,1949,,,State St Park & Ride,Mid Lot South Side,0,
42.268289,0,1533,-83.764433,669,,,Pauline Blvd & Meadowbrook Ave,N- Pauline west of Meadowbrook St.,0,
42.244992,0,1288,-83.668577,428,,,PACKARD ST & TORREY RD,S- Packard east of Torrey St.,0,
42.283042,0,2760,-83.738381,1942,,,N INGALLS ST & CATHERINE ST,E - N Ingalls & Catherine,0,
42.235814,0,2761,-83.733984,1943,,,RESEARCH PARK DR,N - Research Park Dr,0,
42.282471,0,2759,-83.787372,1941,,,JACKSON AVE & HIGHLAKE AVE,S - Jackson East of Highlake,0,
42.188514,0,2765,-83.738186,1947,,,S STATE RD & CAMPUS PKWY,Wal-Mart - Michigan Ave,0,
42.239929,0,2762,-83.748737,1944,,,Briarwood West & BRIARWOOD CIR,Briarwood - MC Sports,0,
42.247192,0,1203,-83.636822,344,,,Washtenaw Ave & N Mansfield St,S- Washtenaw Ave. east of Mansfield,0,
42.246628,0,1204,-83.632311,345,,,Washtenaw Ave & Roosevelt St,S- Washtenaw Ave opp Roosevelt,0,
42.245173,0,1205,-83.624257,346,,,Washtenaw Ave & N Summit St,S- Washtenaw Ave. east of Summit,0,
42.243672,0,1206,-83.620191,347,,,Washtenaw Ave & Perrin St,S- Washtenaw Ave. west of Perrin,0,
42.249687,0,1199,-83.655903,340,,,WASHTENAW AVE,S- Washtenaw Ave. west of Welman,0,
42.249036,0,1200,-83.650866,341,,,Washtenaw Ave & Brookside Road,S- Washtenaw Ave. east of  Brookside,0,
42.248468,0,1201,-83.646952,342,,,Washtenaw Ave & N Hewitt Road,S- Washtenaw Ave east of Hewitt Rd.,0,
42.247844,0,1202,-83.642072,343,,,Washtenaw Ave & Berkley Ave,S- Washtenaw Ave east of Berkeley,0,
42.287187,0,1675,-83.747983,810,,,N Main St & E Summit St,W- N Main St btw Summin,0,
42.284752,0,1676,-83.748396,811,,,N Main St & E Kingsley St,W- N Main St south of Kingsley,0,
42.279867,0,1065,-83.736995,813,,,FLETCHER ST & E WASHINGTON ST,E- Fletcher St. btw Washington -NU,0,
42.245829,0,1207,-83.618565,348,,,W Cross Ave & Ballard St,N- Cross St. east of Ballard St.,0,
42.246811,0,1208,-83.632537,349,,,Washtenaw Ave & Roosevelt St,N- Washtenaw Ave. west of Roosevelt,0,
42.276028,0,1681,-83.726889,816,,,Geddes Ave & Oxford Road,S- Geddes Ave. btw Linden and Oxfo,0,
42.275646,0,1682,-83.72508,817,,,Geddes Ave & S Nichols Dr,S- Geddes Ave. btw Oxford and Oswe,0,
42.237568,0,1829,-83.62532,964,,,W Michigan Ave & 1st Ave,S- Michigan Ave. east of First,0,
42.271996,0,2656,-83.741718,1799,,,Packard St & Hill St,E- Packard north of Hill,0,
42.271701,0,2655,-83.741522,1798,,,Packard St & Hill St,W- Packard south of Hill,0,
42.232225,0,2116,-83.635955,1250,,,W Michigan Ave & Ellsworth Road,N- Michigan Ave. at Meadow Woods Blvd,0,
42.281682,0,1583,-83.757946,719,,,W Huron & S 7th St,S- W Huron east of Seventh St.,0,
42.281766,0,1582,-83.760616,718,,,W Huron & 9th St,S- W Huron east of Ninth St.,0,
42.281916,0,1581,-83.764473,717,,,W Huron & Crest Ave,S- W Huron btw Revena and Crest,0,
42.281778,0,1580,-83.766853,716,,,Jackson Ave & Kenwood Ave,S- Jackson Rd. west of Kenwood,0,
42.281085,0,1579,-83.772748,715,,,Jackson Ave & Grandview Dr,S- Jackson Rd. opp Grandview,0,
42.280933,0,1578,-83.774221,714,,,Jackson Ave & Glendale St,S- Jackson Rd. Hillside Terrace.,0,
42.280925,0,1577,-83.774349,713,,,Jackson Ave & Pleasant Pl,S- Jackson Rd. east of Pleasant St.,0,
42.280662,0,1576,-83.776821,712,,,Jackson Ave & Burwood Ave,S- Jackson Rd. east of Burwood,0,
42.280472,0,1575,-83.778931,711,,,Jackson Ave & Collingwood Ave,S- Jackson Rd. east of Maple,0,
42.280837,0,1574,-83.781884,710,,,Jackson Road & S Maple Road,S- Jackson Rd. at Westgate,0,
42.234782,0,1281,-83.680038,421,,,3811 Carpenter Road & Coachville Cir,E- Carpenter South of Center Valley,0,
42.313966,0,2378,-83.772447,1492,,,Rudolf Steiner & Newport Road,Rudolf Steiner School,0,
42.246081,0,2379,-83.605952,1493,,,E Cross Ave & N Park St,N- Cross St. opp N. Park (at,0,
42.232949,0,1280,-83.678155,420,,,UNNAMED ST,Meijer store on Carpenter Rd.,0,
42.253142,0,2384,-83.698911,1498,,,2384 Huron Pkwy & Canterbury St,E- Huron Parkway at 2395 Huron Prky,0,
42.231054,0,2385,-83.597095,1499,,,SERVICE DR & EMERICK ST,S- Service Dr. east of Emerick,0,
42.241157,0,1283,-83.680271,423,,,Carpenter Road & Green Meadows Blvd,E- Carpenter north of Ridgewood,0,
42.230602,0,1826,-83.641812,961,,,Ellsworth Road & Ardis Dr,S- Ellsworth opposite Ardis,0,
42.263862,0,1933,-83.592751,1068,,,Mac Arthur Blvd & Heather Dr,E- MacArthur Blvd. south of Heather,0,
42.317076,0,2564,-83.71313,1704,,,DHU VARREN RD & N FOXRIDGE CT,S - Dhu Varren East at Foxridge Ct,0,
42.317214,0,2565,-83.707806,1705,,,DHU VARREN RD & NIXON RD,S - Dhu Varren at Nixon,0,
42.317219,0,2567,-83.713509,1707,,,DHU VARREN RD & N FOXRIDGE CT,N - Dhu Varren south of Foxridge Ct,0,
42.294988,0,2569,-83.692897,1709,,,Hubbard St & Green Road,N-Hubbard 80ft west of Green Rd,0,
42.261467,0,1932,-83.594069,1067,,,Mac Arthur Blvd & E Clark Road,E- MacArthur Blvd. north of Clark,0,
42.24366,0,1284,-83.680339,424,,,Carpenter Road & Packard Road,E- Carpenter Rd. betw Green Meadows,0,
42.268087,0,1535,-83.770285,671,,,Pauline Blvd & Virnankay Cir,N- Pauline at Virnankay,0,
42.245188,0,1287,-83.673043,427,,,Packard Road & Oakdale Dr,S- Packard op Oakdale Ever Green Ap,0,
42.237611,0,2815,-83.612916,1998,,,S HURON ST & CATHERINE ST,E-Huron north of Catherine,0,
42.241281,0,2524,-83.581142,1666,,,RUSSELL ST & S HARRIS RD,N- Russel St W of Ford Blvd,0,
42.259518,0,1152,-83.64504,294,,,Huron River Dr & East Access,N- Huron River Dr. opp Westview,0,
42.21751,0,2522,-83.562378,1664,,,MCCARTNEY AVE & LAKEVIEW AVE,E- McCartney N of Lakeview,0,
42.256966,0,1150,-83.635038,292,,,Huron River Dr & Cornell Road,N- Huron River Dr. west of Cornell,0,
42.257621,0,1151,-83.638954,293,,,Huron River Dr & Superior Road,N- Huron River Dr west of Superior,0,
42.213714,0,2518,-83.548104,1660,,,GROVE ST & MARGERY ST,N- Grove W of Margery,0,
42.244546,0,1454,-83.756404,591,,,W Eisenhower Pkwy & W Eisenhower Cir,S- W Eisenhower Pkw east of Wes,0,
42.243406,0,1456,-83.750705,593,,,W Eisenhower Pkwy & S Main St,S- Eisenhower Pkw West of South Ma,0,
42.244278,0,1458,-83.7293,595,,,E EISENHOWER PKWY,S- Eisenhower Pkwy east of South In,0,
42.304507,0,1052,-83.692787,198,,,Green Road & Plymouth Ann Arbor Road,W- Green Rd. south of Plymouth Rd.,0,
42.245105,0,1460,-83.724849,597,,,E Eisenhower Pkwy & King George Blvd,S- Eisenhower Pkwy east of King Geo,0,
42.244875,0,1459,-83.72664,596,,,E Eisenhower Pkwy & Hayes Ct,S- Eisenhower Pkwy west of Hayes Co,0,
42.302591,0,1049,-83.702226,195,,,Plymouth Ann Arbor Road & Prairie St,S- Plymouth Rd opposite Prairie St.,0,
42.30412,0,1048,-83.707147,194,,,NIXON RD & PLYMOUTH RD,E- Nixon Rd. at Ply Mall,0,
42.303726,0,1051,-83.697303,197,,,Plymouth Ann Arbor Road & Commonwealth Dr,S- Plymouth Rd west of Commonwealth,0,
42.299103,0,1045,-83.716617,191,,,PLYMOUTH RD & BISHOP AVE,S- Plymouth Rd. at Bishop Rd.,0,
42.288962,0,1044,-83.736281,190,,,Maiden Lane & Nielsen Ct,N- Maiden Lane west of Nielson Ct,0,
42.302385,0,1047,-83.710045,193,,,Plymouth Ann Arbor Road & Beal Ave,S- Plymouth Rd opposite EPA lab,0,
42.300339,0,1046,-83.714504,192,,,Plymouth Ann Arbor Road & Beal Ave,S- Plymouth Rd.West of Beal,0,
42.259634,0,1128,-83.649562,271,,,Huron River Dr & N Hewitt Road,S- Huron River Dr. east of Hewitt,0,
42.259479,0,1129,-83.645243,272,,,Huron River Dr & East Access,S- Huron River Dr east of Westview,0,
42.257434,0,1130,-83.638539,273,,,1415 Huron River Dr & Superior Road,S- Huron River Dr east of Superior,0,
42.291862,0,1074,-83.692266,217,,,GREEN RD & WINDEMERE DR,E- Green Rd. opp Vintage Valley R,0,
42.261633,0,1432,-83.740352,569,,,S State St & Henry St,E- S State St north of Hen,0,
42.26002,0,1358,-83.737297,497,,,S Industrial Hwy & Stimson St,S. Industrial s. of Stimson,0,
42.233027,0,1972,-83.644992,1107,,,Hewitt Road S & Fairway Trl,E- Hewitt Rd. south of Glory Ln,0,
42.230444,0,1969,-83.625567,1104,,,1st Ave & Monroe Ave,E- First Ave north of Monroe,0,
42.230669,0,1381,-83.679454,520,,,Ellsworth Road & Carpenter Road,S- Ellsworth Rd. east of Carpenter,0,
42.231786,0,1382,-83.677328,521,,,UNNAMED ST & E ELLSWORTH RD,E- Meijer service north of Ellsworth,0,
42.230098,0,1879,-83.583317,1014,,,SERVICE DR & SHARE AVE,W- Service Dr. at Share,0,
42.227047,0,1880,-83.582145,1015,,,FOLEY AVE & S HARRIS RD,S- Foley east of Harris,0,
42.227084,0,1881,-83.578475,1016,,,FOLEY AVE & S HARRIS RD,S- Foley at Gattegno,0,
42.227938,0,1882,-83.575972,1017,,,FOLEY AVE & HARRY ST,S- Foley at Harry St.,0,
42.253057,0,1389,-83.673829,528,,,Glencoe Hills Dr & Washtenaw Road,E- Glencoe Hills Dr no of Washtena,0,
42.256084,0,1390,-83.67516,529,,,Glencoe Hills Dr & Clark Road,E- Glencoe Hills south of Clark Rd,0,
42.231106,0,1877,-83.591192,1012,,,SERVICE DR & GEORGINA DR,S- Service Dr. east of Georgiana,0,
42.231144,0,1878,-83.587643,1013,,,SERVICE DR & GAULT DR,S- Service Dr. east of Gault,0,
42.245072,0,1309,-83.656855,449,,,Packard Road & Bergen Ave,N- Packard west of Dexter,0,
42.297535,0,2103,-83.761519,1237,,,Sunset Road & Pomona Road,N- Sunset btw Brooks and Pomona at,0,
42.281513,0,1557,-83.749131,693,,,W Huron & N Main St,N- W Huron between Main and Ashley,0,
42.245312,0,1303,-83.637847,443,,,W Cross Ave & Douglas St,N- Cross St. west of Douglas,0,
42.245331,0,1302,-83.635812,442,,,W Cross Ave & Owendale St,N- Cross St. east of Owendale,0,
42.245395,0,1301,-83.63207,441,,,W Cross Ave & N Wallace Blvd,N- Cross St. east of Wallace,0,
42.245551,0,1300,-83.628919,440,,,W CROSS ST & OAKWOOD ST,N- Cross St. east of Oakwood,0,
42.245131,0,1307,-83.652865,447,,,W PACKARD RD & BOSTON AVE,N- Packard east Boston,0,
42.245205,0,1306,-83.647927,446,,,Packard Road & N Hewitt Road,N- Packard west of Hewitt Rd.,0,
42.245289,0,1305,-83.643669,445,,,Packard Road & Kewanee Ave,N- Packard west of Kewanee,0,
42.245316,0,1304,-83.640957,444,,,W Cross Ave & Courtland St,N- Cross St. west of Courtland,0,
42.295019,0,2406,-83.692369,1545,,,Hubbard St & Green Road,S- Hubbard at Green,0,
42.258447,0,1768,-83.740371,903,,,S State St & Unknown,W- S State St opposite Hoffman,0,
42.246754,0,1772,-83.739439,907,,,S State St & Hidden Valley Club Dr,W- S State St south of Hidden V,0,
42.256919,0,1769,-83.739993,904,,,2058 S State St & Stimson St,W- S State opposite 2077,0,
42.253454,0,2,-83.739705,905,,,2285 S State St & State St Park & Ride Cir,W- S State St opposite 2285,0,
42.266302,0,2394,-83.666283,1511,,,4701 E Huron River Dr & Heartland Health Center,N- Huron River Dr at Heartland,0,
42.244755,0,1464,-83.708404,601,,,Packard Road & Woodmanor Ct,S- Packard east of Woodmanor Ct.,0,
42.241081,0,2343,-83.619442,1459,,,508 Congress Ave & Ballard St,N- Congress west of Ballard St,0,
42.253107,0,1504,-83.699413,641,,,Huron Pkwy & Platt Road,W- Huron Pkwy north of Platt (Great,0,
42.253549,0,1503,-83.698025,640,,,Huron Pkwy & Platt Road,W- Huron Pkwy at 2350 Huron Parkway,0,
42.249425,0,1506,-83.700279,643,,,Platt Road & Lookout Cir,W- Platt Rd. south of Lookout Ct.,0,
42.25096,0,1505,-83.700349,642,,,Platt Road & Canterbury St,W- Platt Rd south of Canterbury Rd.,0,
42.244991,0,1508,-83.705157,645,,,Packard Road & Chesterfield Dr,N- Packard west of Chesterfield,0,
42.245124,0,1507,-83.700858,644,,,Packard Road & Platt Road,N- Packard west of Platt Rd.,0,
42.245284,0,1298,-83.632881,438,,,W Cross Ave & N Wallace Blvd,S- Cross St. west of Wallace,0,
42.245453,0,1299,-83.628761,439,,,W Cross Ave & Oakwood St,S- Cross St. east of Oakwood,0,
42.245215,0,1296,-83.638576,436,,,W Cross Ave & Douglas St,S- Cross St. opp Douglas St.,0,
42.245247,0,1297,-83.636208,437,,,,S- Cross St. east of Owendale,0,
42.245137,0,1294,-83.643368,434,,,Packard Road & Kewanee Ave,S- Packard opp Kewanee St. (Estab,0,
42.245168,0,1295,-83.640757,435,,,W Cross Ave & Courtland St,S- Cross St. opp Courtland St.,0,
42.245023,0,1292,-83.650805,432,,,Packard Road & Edison Ave,S- Packard east of Edison,0,
42.245098,0,1293,-83.646782,433,,,Packard Road & N Hewitt Road,S- Packard east of Hewitt Rd,0,
42.244875,0,1290,-83.661319,430,,,PACKARD ST & GOLFSIDE DR,S- Packard west of Golfside Rd.,0,
42.244974,0,1291,-83.654162,431,,,Packard Road & N Clubview Dr,S- Packard east of Clubview,0,
42.264321,0,1691,-83.70706,826,,,Arlington Blvd & Hawthorn Road,W- Arlington south of Hawthorn,0,
42.249998,0,1198,-83.660574,339,,,WASHTENAW AVE & GOLFSIDE DR,S- Washtenaw Ave. east of Golfsid,0,
42.250944,0,1197,-83.665561,338,,,Washtenaw Road & Foster Road,S- Washtenaw Ave. btw Foster,0,
42.2538,0,1194,-83.679909,335,,,4040 Washtenaw Road & Carpenter Road,S- Washtenaw Ave. east of Carpenter,0,
42.25143,0,1196,-83.667998,337,,,Washtenaw & Deake St,S- Washtenaw Ave. west of Deake,0,
42.252739,0,1195,-83.674732,336,,,Washtenaw Road & Carlton St,S- Washtenaw Ave. btw Carlton and,0,
42.259064,0,1189,-83.709996,330,,,Washtenaw & E Stadium Blvd,S- Washtenaw Ave west of Manchester,0,
42.256312,0,1192,-83.694039,333,,,Washtenaw & Huron Pkwy,S- Washtenaw Ave east of Huron Pkw,0,
42.257557,0,1191,-83.699913,332,,,WASHTENAW AVE & PLATT RD,S- Washtenaw Ave. east of Platt Rd.,0,
42.280413,0,2728,-83.738739,1908,,,E WASHINGTON ST & S THAYER ST,N-Washington btw Fletche & Thayer,0,
42.302004,0,2726,-84.028675,1906,,,COLISEUM DR & MANCHESTER RD,Artic Coliseum Chelsea,0,
42.276348,0,1608,-83.766077,744,,,W Liberty St & Ridgemor Dr,S- W Liberty east of Ridgemoor,0,
42.234226,0,2724,-83.73179,1904,,,3941 Research Park Dr & S Research Park Dr,S.Research Park at C.I.L,0,
42.305124,0,2725,-83.692116,1905,,,PLYMOUTH RD & GREEN RD,S- Plymouth e of Green,0,
42.306103,0,2722,-83.688403,1902,,,Plymouth Rd Park & Ride,Plymouth Park & Ride,0,
42.230245,0,2723,-83.731944,1903,,,S Research Park Dr & W Ellsworth Road,E.side of Research Pk at Ellswort,0,
42.266495,0,1719,-83.70707,854,,,Arlington Blvd & Heather Way,E- Arlington north of Heatherway,0,
42.27516,0,1683,-83.721603,818,,,,S- Geddes Ave. west of Onondaga St.,0,
42.269956,0,1721,-83.708893,856,,,Arlington Blvd & Devonshire Road,E- Arlington at Devonshire,0,
42.27278,0,1722,-83.710655,857,,,Arlington Blvd & Geddes Ave,E- Arlington at Geddes,0,
42.260427,0,1715,-83.708168,850,,,OVERRIDGE DR & KENILWORTH DR,S- Overridge east of Kenilworth,0,
42.261899,0,1716,-83.70641,851,,,Overridge Dr & Arlington Blvd,S- Overridge at Arlington Blvd.,0,
42.262992,0,1717,-83.706699,852,,,ARLINGTON BLVD & BEDFORD RD,E- Arlington at Bedford,0,
42.274341,0,1684,-83.717355,819,,,,S- Geddes Ave. east of Hill St.,0,
42.226044,0,2835,-83.699756,2018,,,PLATT RD & E MICHIGAN AVE,W- Platt At Lillie Park,0,
42.27307,0,1723,-83.712823,858,,,Geddes Ave & Huntington Dr,N- Geddes Ave. east of Huntington,0,
42.2736,0,1724,-83.714759,859,,,Geddes Ave & Orchard Hills Dr,N- Geddes Ave east of Orchard Hills,0,
42.278456,0,1612,-83.755743,748,,,W Liberty St & 5th St,S- W Liberty east of Fifth St.,0,
42.230708,0,2353,-83.641631,1468,,,Ellsworth Road & W Michigan Ave,N- Ellsworth Rd. west of Ardis,0,
42.28916,0,1005,-83.739093,151,,,BROADWAY ST & WALL ST,S- Broadway St west of Wall St.,0,
42.245404,0,1285,-83.6785,425,,,Packard Road & Grant Dr,S- Packard west of Grant,0,
42.246595,0,2237,-83.755497,1528,,,,N- Oakbrook Dr W of Northbrook,0,
42.203094,0,2809,-83.60275,1991,,,TEXTILE RD & MEADOWVIEW ST,N- Textile west of Meadowview St,0,
42.203185,0,2808,-83.588925,1990,,,TEXTILE RD & WILLOWBRIDGE RD,N-Textile west of Big Pine,0,
42.208652,0,2811,-83.615618,1993,,,Library Cir,Ypsilanti District Library Drive,0,
42.210205,0,2812,-83.619173,1995,,,WHITTAKER RD & STONY CREEK RD,E- Whittaker north of Stony Creek,0,
42.202561,0,2810,-83.609847,1994,,,WHITTAKER RD & TEXTILE RD,E- Whittaker north of Textile,0,
42.224241,0,2814,-83.617678,1997,,,HURON ST & JAMES L HART PKWY,E-Huron north of James L Hart Pkwy,0,
42.215892,0,2813,-83.619082,1996,,,HURON ST & MORGAN RD,E-Huron north of Huron River,0,
42.238665,0,2816,-83.733004,1999,,,VICTORS WAY,Boardwalk & Victors Way,0,
42.276917,0,1679,-83.729972,814,,,Geddes Ave & Observatory St,S- Geddes Ave. east of Elm,0,
42.276617,0,1680,-83.728883,815,,,Geddes Ave & Walnut St,S- Geddes Ave. east of Walnut,0,
42.279982,0,1605,-83.78041,741,,,S Maple Road & N Maple Road,W- S Maple south of Jackson Rd.,0,
42.274331,0,1606,-83.775567,742,,,W Liberty St & W Stadium Blvd,S- W Liberty east of W.Stadium,0,
42.275121,0,1607,-83.771958,743,,,W Liberty St & Dartmoor Road,S- W Liberty west of Dartmore,0,
42.243864,0,1422,-83.736919,559,,,E Eisenhower Pkwy & Wolverine Towers Dr,S- Eisenhower west of Boarwalk,0,
42.277004,0,1610,-83.76287,746,,,W LIBERTY ST & CREST ST,S- W Liberty east of Crest,0,
42.278016,0,1611,-83.758054,747,,,W Liberty St & S 7th St,S-W Liberty east of Seventh St.,0,
42.2324,0,1417,-83.738884,555,,,State St & Research Park Dr,E- S State St. north of Research,0,
42.278838,0,1613,-83.754007,749,,,W Liberty St & 3rd St,S- W Liberty at Third St.,0,
42.240894,0,1419,-83.740193,557,,,,N- Briarwood Cir Dr. west of S. Sta,0,
42.234083,0,1418,-83.738938,556,,,S STATE RD,E- S State St. opp State Ci,0,
42.229702,0,1413,-83.726267,551,,,W Ellsworth Road & Varsity Dr,N- Ellsworth Rd west of Varsity Dr.,0,
42.229772,0,1412,-83.723452,550,,,W Ellsworth Road & Varsity Dr,N- Ellsworth Rd. btw Stone School,0,
42.243492,0,1140,-83.616001,282,,,N Adams St & Washtenaw Ave,E- Adams St. at Washtenaw Ave.,0,
42.2502,0,1784,-83.739338,919,,,S State St & State St Park & Ride Cir,E- S State St north of 2555 S,0,
42.285298,0,1095,-83.730945,238,,,East Medical Center Dr & West Medical Center Dr,W- East Medical Ctr Dr south West,0,
42.284393,0,1096,-83.727419,239,,,E MEDICAL CENTER DR,W- East Medical Ctr. Dr. at Taubman,0,
42.289121,0,1092,-83.736876,235,,,,S- Maiden Lane east Broadway (acros,0,
42.287847,0,1094,-83.733703,237,,,,S- Maiden Lane east of Island Dr,0,
42.26546,0,2065,-83.779585,1199,,,Pauline Blvd & S Maple Road,N- Pauline at South Maple,0,
42.232094,0,2064,-83.635919,1198,,,W Michigan Ave & Ellsworth Road,S- Michigan Ave. east of Ellsworth,0,
42.235162,0,1917,-83.58759,1052,,,Ecorse Road & Glenwood Ave,N- Ecorse Rd. west of Glenwood,0,
42.235263,0,1918,-83.590507,1053,,,ECORSE RD & S REDWOOD AVE,N- Ecorse Rd. east of Redwood,0,
42.236303,0,1919,-83.596638,1054,,,ECORSE RD & DAVIS ST,E- Ecorse Rd.at Davis,0,
42.266475,0,1690,-83.707148,825,,,Arlington Blvd & Heather Way,W- Arlington north of Heatherway,0,
42.243094,0,2062,-83.769831,1196,,,Waters Road & Oak Valley Dr,N- Waters Rd. w of Target drive,0,
42.298038,0,2556,-83.736578,1696,,,PONTIAC TRL & TAYLOR ST,E- Pontiac north of Taylor,0,
42.317273,0,2557,-83.727358,1697,,,1731 Dhu Varren Road & Carrot Way,N - Dhu Varren Foodgatherers,0,
42.275005,0,2555,-83.737744,1695,,,S University Ave & Tappan St,N - SU opposite Tappan,0,
42.294876,0,2554,-83.692601,1693,,,HUBBARD ST & GREEN RD,S- Hubbard at Green Rd,0,
42.298582,0,2615,-83.788145,1759,,,Miller Road & State Hwy 14,Miller Rd Park & Ride,0,
42.295526,0,2552,-83.707564,1691,,,Hayward St & Hubbard St,S - Haywood at Hubbard,0,
42.246176,0,2609,-83.628761,1753,,,Washtenaw Ave & Oakwood St,S- Washtnaw east of Oakwood,0,
42.295147,0,2608,-83.697647,1752,,,Hubbard St & Dean Road,S- Hubbard opposite Dean,0,
42.316453,0,2558,-83.72732,1698,,,DHU VARREN RD & CARROT WAY,S - Dhu Varren at Carrot Way,0,
42.291932,0,2559,-83.738943,1699,,,PONTIAC TRL & BOWEN ST,E- Pontiac Trail at Bowen,0,
42.308589,0,2144,-83.692722,1278,,,Green Road & Commonwealth Dr,E- Green Rd. at Midwest Credit Unio,0,
42.310212,0,2145,-83.692772,1279,,,Green Road & Unknown,E- Green Rd. at Post Office,0,
42.278456,0,998 (12),-83.747353,144,,,S 4th Ave & Blake Transit Dr,BTC - 4th Ave (12s),0,
42.278286,0,999 (4),-83.747328,145,,,S 4th Ave & Blake Transit Dr,BTC - 4th Ave (4-2),0,
42.246196,0,2039,-83.597534,1173,,,E Cross Ave & Osband St,N- Cross St. at Osband St,0,
42.279082,0,997(3),-83.74727,143,,,S 4th Ave & Blake Transit Dr,BTC - 4th Ave (3-9),0,
42.278414,0,994 (6),-83.746993,140,,,Blake Transit Dr & S 5th Ave,BTC Mall (6-16),0,
42.278403,0,995 (1),-83.747151,141,,,Blake Transit Dr & S 4th Ave,BTC Mall (1-210),0,
42.278383,0,1475,-83.698676,612,,,S HURON PKWY & E WASHINGTON ST,E- Huron Pkwy north of Geddes,0,
42.275605,0,2654,-83.743205,1797,,,Thompson St & E Jefferson St,W- Thompson south of E.Jefferson,0,
42.26043,0,1473,-83.69395,610,,,,E- Huron Pkwy opp Boulder Dr.,0,
42.272266,0,1474,-83.697935,611,,,Huron Pkwy & Huron River Dr,E- Huron Pkwy north of Huron River,0,
42.30624,0,1479,-83.707497,616,,,NIXON RD & AURORA ST,E- Nixon Rd. north of Aurora,0,
42.307942,0,1480,-83.707662,617,,,Nixon Road & Sandalwood Cir,E- Nixon Rd opp Sandlewood Circle,0,
42.279925,0,1002,-83.743902,148,,,S DIVISION ST & E WASHINGTON ST,E- Division south of Washington,0,
42.283234,0,1003,-83.743605,149,,,N DIVISION ST & CATHERINE ST,E- Division St n of Catherine St.,0,
42.234215,0,1371,-83.739153,510,,,S State St & State Cir,W- S State St south of State Ci,0,
42.287678,0,2719,-83.710717,1887,,,GLAZIER WAY & OLD DIXBORO RD,N- Glazier Way @ Arbor Crest,0,
42.287459,0,2717,-83.74277,1885,,,325 Depot St & N 5th Ave,Amtrak Station,0,
42.306538,0,2651,-83.710756,1794,,,S HURON PKWY & TRAVERWOOD DR,S- Huron Pkwy west of Nixon,0,
42.255603,0,2715,-83.688897,1883,,,Washtenaw & Pittsfield Blvd,N- Washtenaw east of Pittsfield,0,
42.29568,0,2714,-83.780916,1882,,,N Maple Road & Miller Ave,E - N Maple north of Miller,0,
42.277046,0,2713,-83.733499,1881,,,Washtenaw & Geddes Ave,W - Washtenaw South of Geddes,0,
42.305588,0,2712,-83.780037,1880,,,N Maple Road & Craig Road,Skyline High School,0,
42.277687,0,2151,-83.734824,1285,,,Geddes Ave & Church St,S- Geddes at CCTC,0,
42.27499,0,2153,-83.740107,1287,,,S University Ave & S State St,N- South University east of State,0,
42.229363,0,1373,-83.73813,512,,,W Ellsworth Road & S State St,S- Ellsworth Rd. east of State St.,0,
42.309764,0,2147,-83.707604,1281,,,Nixon Road & Bluett Dr,W- Nixon Rd. south of Bluett Rd.,0,
42.312168,0,2146,-83.692794,1280,,,Green Road & Burbank Dr,E- Green Rd. south of Burbank Dr.,0,
42.235726,0,1813,-83.629237,948,,,W Michigan Ave & S Wallace Blvd,N- Michigan Ave. east of Wallace,0,
42.233237,0,1814,-83.634054,949,,,W MICHIGAN AVE & WILSON ST,N- Michigan Ave. west of Wilson,0,
42.2337,0,1811,-83.625681,946,,,481 First Ave & Frederick Ave,E- First Ave op Frederick,0,
42.237269,0,1812,-83.626275,947,,,W Michigan Ave & 1st Ave,N- Michigan Ave. west of First,0,
42.281328,0,2422,-83.701624,1566,,,UNNAMED ST,N- Huron High Entr Dr,0,
42.250525,0,2356,-83.756651,1470,,,Oakbrook Dr & Ann Arbor Saline Road,S- Oakbrook Dr. east of Ann Arbor,0,
42.317523,0,2438,-83.695558,1578,,,GREEN RD & KILBURN PARK CIR,S- Green op Kilburn Park,0,
42.268302,0,1553,-83.760573,689,,,Pauline Blvd & Van Dusen Dr,S- Pauline east of VanDusen,0,
42.268143,0,1552,-83.76399,688,,,PAULINE BLVD & MEADOWBROOK ST,S- Pauline east of Meadowbrook,0,
42.239766,0,2360,-83.617084,1474,,,Ferris St & S Hamilton St,S- Ferris St. btw Hamilton and Ada,0,
42.269893,0,1549,-83.773464,685,,,W Stadium Blvd & Federal Blvd,W- W Stadium Blvd south of Feder,0,
42.272103,0,1548,-83.775424,684,,,W Stadium Blvd & Federal Blvd,W- W Stadium Blvd north of Federal,0,
42.268143,0,1551,-83.766739,687,,,Pauline Blvd & Kay Pkwy,S- Pauline east of Kay Parkway,0,
42.268016,0,1550,-83.770332,686,,,Pauline Blvd & Stadium Ct,S- Pauline east of Stadium,0,
42.278859,0,1545,-83.780096,681,,,W Stadium Blvd & S Maple Road,W-  W.Stadium south of Maple,0,
42.2773,0,1544,-83.7801,680,,,S Maple Road & Winewood Ave,E- S Maple north of Winewood,0,
42.27392,0,1547,-83.776663,683,,,W Stadium Blvd & W Liberty St,W- W Stadium Blvd south of Liber,0,
42.277052,0,1546,-83.778739,682,,,2301 W Stadium Blvd & Winewood Ave,W- W Stadium Blvd south of Winewood,0,
42.245254,0,1319,-83.694107,458,,,Packard Road & Fernwood St,N- Packard west of Fernwood,0,
42.290743,0,2173,-83.799608,1307,,,Wagner Road & Dexter Ann Arbor Road,W- Wagner Rd. south of Dexter,0,
42.313012,0,2216,-83.692674,1349,,,Bluett Dr & Burbank Dr,S- Bluett Rd. at Burbank,0,
42.285746,0,2174,-83.781121,1308,,,Dexter Ann Arbor Road & N Maple Road,N- Dexter Rd. west of N. Maple,0,
42.246289,0,2676,-83.617595,1819,,,N Hamilton St & W Cross Ave,W - Hamilton north of Cross,0,
42.242271,0,987(3),-83.615251,133,,,Pearl Ave & N Adams St,YTC - 3/6,0,
42.242296,0,986(4),-83.615026,132,,,Pearl Ave & N Adams St,YTC - 4,0,
42.242316,0,985(5),-83.614842,131,,,Pearl Ave & N Adams St,YTC - 5,0,
42.278451,0,991 (7),-83.74644,137,,,Blake Transit Dr & S 4th Ave,BTC Mall (7),0,
42.255018,0,1360,-83.735197,499,,,S Industrial Hwy & Rosewood St,W- South Industrial opp Rose,0,
42.242308,0,989(20),-83.615865,135,,,Pearl Ave & N Washington St,YTC - 20,0,
42.242268,0,988(10),-83.61545,134,,,Pearl Ave & N Washington St,YTC - 10/11,0,
42.264134,0,1355,-83.740481,494,,,S State St & Granger Ave,W- S State St opp Granger,0,
42.259938,0,1356,-83.740402,495,,,S State St & Stimson St,W- S State St south of Stimson,0,
42.278479,0,993 (8),-83.746821,139,,,BTC MALL DR & S 5TH AVE,BTC Mall (8),0,
42.278479,0,992 (5),-83.746601,138,,,BTC MALL DR & S 4TH AVE,BTC Mall (5),0,
42.294666,0,2084,-83.732952,1218,,,Plymouth Ann Arbor Road & Barton Dr,S- Plymouth Rd. Brookside Apts,0,
42.269506,0,1352,-83.740615,491,,,S State St & E Hoover Ave,W- S State St south of Hoover,0,
42.267533,0,1353,-83.740587,492,,,S State St & Mc Kinley Ave,W- S State St opp McK,0,
42.266025,0,1354,-83.740546,493,,,S State St & Dewey St,W- S State St opp Dewey,0,
42.262179,0,1445-1,-83.750556,1832,,,Pioneer Dr,Pioneer High School,0,
42.282046,0,2687,-83.733643,1831,,,Zina Pitcher Ave & E Ann St,W - Zina Pitcher S of Ann,0,
42.316614,0,2689,-83.72732,1836,,,DHU VARREN RD & CARROT WAY,N - Dhu Varren at Carrot Way,0,
42.316854,0,1488,-83.699408,625,,,Green Road,N- Green Rd. east of Whisperwood,0,
42.242116,0,2688,-83.616069,1834,,,N Adams St & Pearl Ave,EMU College of Business,0,
42.256784,0,1743,-83.760842,878,,,S 7TH ST & SCIO CHURCH RD,W.Side of 7th St.  at Scio Church,0,
42.273633,0,1685,-83.71502,820,,,Geddes Ave & Vinewood Blvd,S- Geddes Ave. east of Vinewood St.,0,
42.238739,0,1267,-83.69997,407,,,Platt Road & Verle Ave,E- Platt Rd. opp Verle St.,0,
42.235921,0,1266,-83.699882,406,,,Platt Road & Williamsburg Dr,E- Platt Rd at Williamsburg,0,
42.282278,0,1804,-83.767099,939,,,Dexter Ave & Wildwood Ave,S- Dexter Rd. east of Wildwood,0,
42.282861,0,1803,-83.769979,938,,,Dexter Ave & N Glendale Dr,S- Dexter Rd. west of Grandview,0,
42.230125,0,1263,-83.706795,403,,,E Ellsworth Road & Braeburn Cir,S- Ellsworth Rd opp Braebur,0,
42.229992,0,1262,-83.710783,402,,,E Ellsworth Road & Jonathan Ct,S- Ellsworth west of Jonathan St.,0,
42.260131,0,2244,-83.649751,1377,,,McAuley Dr & Huron River Dr,E- McAuley Dr. north of Huron River,0,
42.229809,0,1260,-83.718143,400,,,W.Ellsworth Road & Stone School Road,S- Ellsworth Rd. east of Stone Sc o,0,
42.239503,0,2832,-83.600981,2015,,,TOWNER ST & S PROSPECT ST,N-Towner east of Prospect,0,
42.264698,0,2245,-83.657925,1378,,,Elliot Dr & McAuley Dr,E- Elliott Dr. south of McAuley Dr,0,
42.294797,0,2085,-83.733028,1219,,,Plymouth Ann Arbor Road & Barton Dr,N- Plymouth btw Broadway & Barton,0,
42.19539,0,2833,-83.699036,2016,,,PLATT RD & HIDDEN CREEK DR,W- Platt at Hidden Creek,0,
42.28352,0,1802,-83.77336,937,,,DEXTER AVE & WORDEN AVE,S- Dexter Rd. btw Worden and Allen,0,
42.245199,0,1312,-83.670389,452,,,Packard Road & Hawks Road,N- Packard west of Hawks,0,
42.244508,0,1269,-83.700021,409,,,Platt Road & Packard Road,E- Platt Rd. south of Packard,0,
42.242313,0,1268,-83.7,408,,,Platt Road & Redwood Ave,E- Platt Rd. north of Redwood,0,
42.245356,0,1313,-83.674277,453,,,Packard Road & Dalton Dr,N- Packard west of Dalton,0,
42.293992,0,2551,-83.709892,1690,,,Hayward St & Draper,S - Haywood at Draper,0,
42.295526,0,2561,-83.737558,1701,,,PONTIAC TRL & APPLE ST,E - Pontiac Tr N of Apple,0,
42.245406,0,1274,-83.682214,414,,,Packard Road & Carpenter Road,S- Packard west of Carpenter,0,
42.255999,0,2773,-83.661023,1955,,,GOLFSIDE DR & LAKERIDGE ST,E - Golfside north of Lakeridge,0,
42.253915,0,2772,-83.660967,1954,,,GOLFSIDE DR & INTERNATIONAL DR,E - Golfside at International,0,
42.252885,0,2775,-83.680586,1957,,,CARPENTER RD & WASHTENAW AVE,E - Carpenter south of Washtenaw,0,
42.257877,0,2774,-83.661079,1956,,,GOLFSIDE DR & BYNAN DR,E - Golfside north of Bynan,0,
42.26173,0,2769,-83.66684,1951,,,WCC Service Dr & WCC Entrance South Dr,WCC South Side,0,
42.287858,0,2768,-83.744697,1950,,,N 5TH AVE & DEPOT ST,W - Fifth S of Depot,0,
42.251026,0,2771,-83.660901,1953,,,GOLFSIDE DR & WASHTENAW AVE,E - Golfside north of Washtenaw,0,
42.240734,0,2770,-83.619566,1952,,,W MICHIGAN AVE & BALLARD ST,N - Michigan west of Ballard,0,
42.2589,0,2777,-83.677791,1959,,,W CLARK RD & HOGBACK RD,S - Clark east of Hogback,0,
42.255648,0,2776,-83.680665,1958,,,HOGBACK RD & WASHTENAW AVE,E - Hogback north of Washtenaw,0,
42.225043,0,1883,-83.572836,1018,,,HARRY ST & HEATHERIDGE ST,S- Harry at Heather Ridge,0,
42.277825,0,1239,-83.74289,379,,,E William St & Thompson St,S- E William St east of Thompson,0,
42.283159,0,1238,-83.738772,378,,,CATHERINE ST & N INGALLS ST,N- Catherine St. west of Ingalls,0,
42.260155,0,1694,-83.708798,829,,,Overridge Dr & Sheridan Dr,N- Overridge at Sheridan,0,
42.261972,0,1693,-83.706591,828,,,OVERRIDGE DR & WARRINGTON DR,N- Overridge west of Arlington,0,
42.26903,0,1230,-83.723642,371,,,Washtenaw & Wayne St,E- Washtenaw Ave. north of Wayne,0,
42.267475,0,1229,-83.721698,370,,,Washtenaw & Devonshire Road,E- Washtenaw Ave north Devonshire,0,
42.272684,0,1232,-83.728268,373,,,,E- Washtenaw Ave. north of Hill St.,0,
42.2713,0,1231,-83.726439,372,,,WASHTENAW AVE & CAMBRIDGE RD,E- Washtenaw north of Cambridge,0,
42.281802,0,1235,-83.730963,375,,,S OBSERVATORY ST & E MEDICAL CENTER DR,East side of Observatory north of E,0,
42.2751,0,1233,-83.731371,374,,,Washtenaw & S University Ave,E- Washtenaw Ave north of South U,0,
42.283167,0,1237,-83.735961,377,,,Catherine St & Glen Ave,N- Catherine St. west of Glen St.,0,
42.272534,0,1687,-83.710689,822,,,Arlington Blvd & Geddes Ave,W- Arlington south of Geddes,0,
42.242309,0,1000,-83.61528,146,,,PEARL ST & N WASHINGTON ST,YTC - EndPt,0,
42.18892,0,2836,-83.622445,2019,,,HITCHINGHAM RD,Arbor Prep High School,0,
42.283013,0,1573,-83.789001,709,,,Jackson Road & Mason St,S- Jackson Rd. at Mason St.,0,
42.254306,0,1147,-83.629344,289,,,OAKWOOD ST & LYMAN ST,E- Oakwood south of Huron River Dr,0,
42.25158,0,1252,-83.723188,392,,,Packard Road & Pine Valley Blvd,W- Packard south of Pine Valley,0,
42.254476,0,1250,-83.725466,390,,,Packard Road & Jewett Ave,W- Packard south of Jewett,0,
42.238629,0,1257,-83.720132,397,,,Stone School Road & Birch Hollow Dr,W- Stone School south of Birch Hol,0,
42.241081,0,1256,-83.71983,396,,,Stone School Road & Pebble Creek Dr,W- Stone School Rd s of Pebble Cr,0,
42.230748,0,2371,-83.675405,1485,,,Ellsworth Road & Beech Dr,N- Ellsworth Rd. opp Ridgewood we,0,
42.247311,0,1254,-83.719955,394,,,Stone School Road & Packard Road,W- Stone School Rd south of Packard,0,
42.27943,0,996 (13),-83.747305,142,,,S 4th Ave & E Liberty St,BTC - 4th Ave (13),0,
42.232876,0,1259,-83.719645,399,,,Stone School Road & Champagne Dr,W- Stone School south of Champagne,0,
42.235382,0,1258,-83.72013,398,,,STONE SCHOOL RD & PHEASANT RUN CIR,W- Stone School north of Pheasant,0,
42.246255,0,2038,-83.593804,1172,,,E Cross Ave & Bagley Ave,Cross St. at Bagley St,0,
42.309085,0,1662,-83.766841,797,,,NEWPORT RD & WARRINGTON DR,W- Newport south of Warrington,0,
42.313298,0,1661,-83.769865,796,,,NEWPORT RD & LOWELL RD,W- Newport at White Oak,0,
42.314569,0,1660,-83.770487,795,,,HOLYOKE LN & NEWPORT RD,N- Holyoke at Newport Rd.,0,
42.295178,0,2570,-83.697429,1710,,,Hubbard St & Dean Road,N- Hubbard 50ft West of Dean,0,
42.310111,0,1658,-83.763843,793,,,Warrington Dr & Lincolnshire Lane,S- Warrington west of Lincolnshire,0,
42.309156,0,1657,-83.76635,792,,,Warrington Dr & Newport Road,S- Warrington east of Newport Rd.,0,
42.308098,0,1654,-83.766118,790,,,Newport Road & Bird Road,E- Newport north of Bird Rd.,0,
42.229494,0,1374,-83.73222,513,,,W Ellsworth Road & S Research Park Dr,S- Ellsworth Rd. east  S Research P,0,
42.295714,0,2574,-83.707187,1719,,,HUBBARD ST & HAYWARD ST,N- Hubbard at Hayward,0,
42.246372,0,2036,-83.583998,1170,,,E Cross Ave & N Harris Road,N- Cross west of Harris,0,
42.300913,0,1664,-83.765964,799,,,Newport Road & Down Up Cir,W- Newport at Down Up Cr.,0,
42.304696,0,1663,-83.766109,798,,,Newport Road & Down Up Cir,W- Newport opp Downup Circle (nor,0,
42.213804,0,2517,-83.544421,1658,,,GROVE ST & RAWSONVILLE RD,N- Grove W of Rawsonville,0,
42.213763,0,2527,-83.546018,1659,,,GROVE ST & NANCY ST,N- Grove E of Nancy,0,
42.292004,0,1025,-83.73915,171,,,PONTIAC TRL & BOWEN ST,W- Pontiac Trl op Bowen,0,
42.214738,0,2512,-83.562438,1653,,,GROVE ST & MCCARTNEY AVE,S- Grove E. of MacCartney,0,
42.252605,0,2606,-83.742926,1750,,,State St Park & Ride,UM Tennis & Gymnastics to WT,0,
42.23408,0,2510,-83.613818,1651,,,S Huron St & Harriet Ave,E- Huron N of Harret,0,
42.213561,0,2516,-83.547495,1657,,,GROVE ST & NANCY ST,S- Grove E of Snow,0,
42.217254,0,2513,-83.568403,1654,,,GROVE ST & LAKEVIEW AVE,S- Grove W of Lakeview,0,
42.21361,0,2514,-83.557431,1655,,,GROVE ST & BRIDGE RD,S- Grove E of Bridge,0,
42.250662,0,1450,-83.756677,587,,,Oakbrook Dr & Ann Arbor Saline Road,N - Oakbrook at Ann Arbor Saline,0,
42.254863,0,1447,-83.751872,584,,,Ann Arbor Saline Road & S Main St,W- Ann Arbor-Saline Rd. s of Main,0,
42.252938,0,1448,-83.754349,585,,,Ann Arbor Saline Road & Village Oaks Ct,W- Ann Arbor-Saline Rd. s of Villag,0,
42.262145,0,1445,-83.750574,582,,,Pioneer Dr & S Main St,Pioneer High School,0,
42.267317,0,1443,-83.750369,580,,,S Main St & W Keech Ave,W- S Main St south of Keech Ave,0,
42.265569,0,1444,-83.750296,581,,,S Main St & Berkley Ave,W- S Main St south of Berkeley,0,
42.24488,0,1510,-83.711573,647,,,Packard Road & Buhr Park,N- Packard w of Buhr Park Entrance,0,
42.278665,0,1102,-83.73934,245,,,N University Ave & S Thayer St,N- North University at Thayer,0,
42.253683,0,1785,-83.739551,920,,,S State St & State St Park & Ride Cir,E- S State St at 2285,0,
42.28038,0,1104,-83.742083,247,,,E WASHINGTON ST & S DIVISION ST,N- Washington St.West of State St.,0,
42.211149,0,2803,-83.59692,1985,,,S HURON RIVER DR & LAKECREST DR,S- Huron River Dr east of Lake Crest Dr,0,
42.27998,0,1098,-83.731134,241,,,Observatory St & Washington Heights,W- Observatory St. opp Washington H,0,
42.281476,0,1097,-83.728744,240,,,East Medical Center Dr & Simpson Dr,N- East Medical Ctr Dr at E Hospi,0,
42.278227,0,1099,-83.731044,242,,,Observatory St & N University Ave,W- Observatory St south of N Univ,0,
42.305434,0,2143,-83.692941,1277,,,Green Road & Commonwealth Dr,E- Green Rd. north Plymouth,0,
42.280782,0,1106,-83.74074,249,,,S STATE ST & E WASHINGTON ST,E- State St btw Washington and Huro,0,
42.281063,0,1105,-83.74611,248,,,S 5TH AVE & E HURON ST,W- Fifth Ave south of Huron,0,
42.19134,0,2831,-83.717924,2014,,,WARNER RD & E MICHIGAN AVE,Warner & Heartwood,0,
42.263546,0,2321,-83.569478,1437,,,1566 Wiard Blvd & Mc Intosh,S- Wiard east of McIntosh Rd.,0,
42.269726,0,2318,-83.580237,1434,,,9412 Mac Arthur Blvd & Unknown,S- MacArthur Blvd. btw Harris & Wi,0,
42.264592,0,2319,-83.570975,1435,,,Wiard Blvd & Bazley Blvd,S- Wiard W of Russett,0,
42.270133,0,2317,-83.583151,1433,,,Bld 18 B & N Harris Road,S- MacArthur Blvd. east of Harris,0,
42.241018,0,2315,-83.624813,1431,,,Congress Ave & S Summit St,N- Congress east of Summit St.,0,
42.215328,0,2521,-83.562509,1663,,,MCCARTNEY AVE & GROVE ST,E- McCartney N of Grove,0,
42.248644,0,2496,-83.756806,1637,,,Oakbrook Dr & Rolling Meadows Dr,W- Oakbrook S of Rolling Meadows,0,
42.257034,0,1359,-83.736514,498,,,S Industrial Hwy & Astor Ave,W- South Industrial opp Astor,0,
42.21377,0,2520,-83.557187,1662,,,GROVE ST & MAIN ST,N- Grove W of Main,0,
42.23064,0,1380,-83.681409,519,,,Ellsworth Road & Carpenter Road,S- Ellsworth Rd. west of Carpenter,0,
42.230492,0,1379,-83.688549,518,,,E Ellsworth Road & I- 94 (Bus),S- Ellsworth Rd. op Trade Center Dr,0,
42.28287,0,1791,-83.769732,926,,,1802 Dexter Ave & Grandview Dr,N- Dexter Rd opp Grandview,0,
42.230035,0,1874,-83.596928,1009,,,EMERICK ST & SERVICE DR,W- Emerick south of Service Dr,0,
42.236369,0,1871,-83.60196,1006,,,S Prospect St & Davis Ave,W- Prospect opp Davis St.,0,
42.23867,0,1870,-83.601993,1005,,,S Prospect St & Towner Ave,W- Prospect south of Towner,0,
42.241053,0,1869,-83.602525,1004,,,E MICHIGAN AVE & N PROSPECT ST,S- Michigan  west of Prospect,0,
42.229567,0,1376,-83.726902,515,,,W Ellsworth Road & Varsity Dr,S- Ellsworth Rd west of Varsity Dr.,0,
42.241013,0,1867,-83.608362,1002,,,W Michigan Ave & S River St,S- Michigan Ave. east of River St.,0,
42.230321,0,1378,-83.698915,517,,,E Ellsworth Road & Platt Road,S- Ellsworth Rd. east of Platt Rd.,0,
42.243712,0,1865,-83.614653,1000,,,N WASHINGTON ST & WASHTENAW AVE,W- Washington St. at Washtenaw Ave,0,
42.313927,0,1486,-83.692564,623,,,Green Road & Burbank Dr,E- Green Rd. north of Burbank,0,
42.245219,0,1320,-83.696364,459,,,Packard Road & Bellwood Ave,N- Packard west of Bellwood,0,
42.237237,0,2091,-83.617499,1225,,,,W- Hamilton St. opp Catherine,0,
42.24023,0,2090,-83.617555,1224,,,S HAMILTON ST & FERRIS ST,W- Hamilton St. south of Mich Ave.,0,
42.314012,0,1490,-83.707654,627,,,NIXON RD & HAVERHILL CT,W- Nixon Rd. opp Westbury Court,0,
42.316969,0,1489,-83.706634,626,,,Green Road & Nixon Road,N- Green Rd. east of Nixon,0,
42.296215,0,2087,-83.73082,1221,,,Plymouth Ann Arbor Road & Barton Dr,N- Plymouth Rd. west of Barton,0,
42.316883,0,1487,-83.693621,624,,,Green Road & Burbank Dr,E- Green Rd. north of Burbank,0,
42.245023,0,1310,-83.661259,450,,,Packard Road & Golfside Road,N- Packard west of Golfside,0,
42.24505,0,1311,-83.665909,451,,,Packard Road & Spice Tree Apt,N- Packard east of Foster,0,
42.307821,0,1492,-83.707764,629,,,Nixon Road & Sandalwood Cir,W- Nixon Rd. south of Sandalwood N,0,
42.31143,0,1491,-83.70761,628,,,Nixon Road & Traver Road,W- Nixon Rd. south of Traver,0,
42.245471,0,1314,-83.677237,454,,,Packard Road & Dayton Dr,N- Packard west of Dayton,0,
42.245619,0,1315,-83.681552,455,,,Packard Road & Carpenter Road,N- Packard west of Carpenter,0,
42.245513,0,1317,-83.684933,456,,,PACKARD ST & BURTON AVE,N- Packard east of Burton,0,
42.245324,0,1318,-83.690179,457,,,Packard Road & Brandywine Dr,N- Packard west of Brandywine,0,
42.24812,0,2708,-83.738653,1876,,,Oakbrook & S State St,Oakbrook E of State,0,
42.23195,0,2709,-83.574603,1877,,,DORSET AVE & TYLER RD,E- Dorset north of Tyler,0,
42.242588,0,2706,-83.734948,1874,,,Wolverine Towers Dr & Boardwalk Dr,Wolverine Exit Dr at Boardwak,0,
42.245969,0,2707,-83.734742,1875,,,Boardwalk Dr & E Eisenhower Pkwy,Boardwalk N of Eisenhower,0,
42.281544,0,2704,-83.743717,1872,,,N DIVISION ST & E ANN ST,E - Division north of Huron,0,
42.237835,0,2523,-83.579374,1665,,,S FORD BLVD & PARKWOOD AVE,E- Ford Blvd N.of Parkwood Ave,0,
42.28038,0,1031,-83.745228,177,,,E Washington St & S 5th Ave,S- Washington St east of Fifth Ave,0,
42.283772,0,1028,-83.745984,174,,,N 5TH AVE & DETROIT ST,W- Fifth Ave. south of Kingsley,0,
42.286874,0,1027,-83.743942,173,,,BEAKES ST & E SUMMIT ST,N- Beakes St. west of Summit St.,0,
42.288973,0,1026,-83.739801,172,,,BROADWAY ST & SWIFT ST,N- Broadway St. west of Swift,0,
42.243097,0,2710,-83.737844,1878,,,Wolverine Towers Dr & S State St,Wolverine Tower,0,
42.231735,0,2711,-83.73927,1879,,,S State St & Airport Blvd,W- S State at Airport Blvd,0,
42.254572,0,1842,-83.580492,977,,,Ford Blvd & Holmes Road,E- Ford Blvd. north of Holmes,0,
42.250288,0,1841,-83.580389,976,,,N Ford Blvd & E Forest Ave,E- Ford Blvd. north of Forest,0,
42.249915,0,1840,-83.583379,975,,,E FOREST AVE & N HARRIS RD,S- Forest Ave at Harris,0,
42.249883,0,1839,-83.588094,974,,,E Forest Ave & Browning,S- Forest Ave east of Browning,0,
42.24986,0,1838,-83.592153,973,,,E Forest Ave & Hollis Road,S- Forest Ave at Hollis,0,
42.249782,0,1837,-83.596608,972,,,E Forest Ave & Campbell Ave,Forest Ave west of Campbell,0,
42.249742,0,1836,-83.601469,971,,,E Forest Ave & Vought St,S- Forest Ave west of Vought,0,
42.246899,0,1835,-83.602708,970,,,Prospect Road & N Prospect Road,Prospect opposite Maple,0,
42.256561,0,1843,-83.57938,978,,,Ford Blvd & E Clark Road,Clark East Towers,0,
42.252558,0,1521,-83.754601,657,,,Ann Arbor Saline Road & Fieldcrest Dr,E- Ann Arbor-Saline Rd n of Fieldcr,0,
42.245949,0,1518,-83.755699,654,,,Northbrook Pl & Oakbrook Dr,W- Northbrook S of Oakbrook,0,
42.246264,0,1519,-83.758358,655,,,W Eisenhower Pkwy & W Eisenhower Cir,N- Eisenhower Pkwy opp Eisenhower Cr,0,
42.28377,0,1040,-83.726952,186,,,East Medical Center Dr & E Hospital Dr,E- East Medical Ctr. Dr.,0,
42.285532,0,1041,-83.731433,187,,,E MEDICAL CENTER DR & N MEDICAL CENTER DR,E- East Medical Ctr Dr N of West,0,
42.280553,0,1038,-83.731054,184,,,Observatory St & Washington Heights,E- Observatory  N of Washington H,0,
42.243981,0,1461,-83.717188,598,,,E EISENHOWER PKWY & HOMESTEAD COMMONS DR,S- Eisenhower Pkwy east of Stone Sc,0,
42.24373,0,1516,-83.750073,652,,,W Eisenhower Pkwy & S Main St,N- Eisenhower Pkwy west of S Main,0,
42.266359,0,2395,-83.666533,1508,,,opp Heartland & Heartland Health Center,S.Side of E Huron River Dr,0,
42.288065,0,1043,-83.734058,189,,,Maiden Lane & Maiden Lane Ct,N- Maiden Lane west of Maiden Ln Ct,0,
42.254266,0,1522,-83.750302,658,,,S Main St & Ann Arbor Saline Road,E- S Main St south of S.AA Saline,0,
42.229685,0,1377,-83.723439,516,,,1180 W Ellsworth Road & Stone School Road,S- Ellsworth Rd west of Stone Sch,0,
42.245177,0,1513,-83.725281,650,,,E Eisenhower Pkwy & King George Blvd,N- Eisenhower Pkwy west of King Geo,0,
42.281326,0,1039,-83.728266,185,,,E MEDICAL CENTER DR & E HOSPITAL DR,S- East Medical Ctr Dr east of East,0,
42.280618,0,2739,-83.749674,1919,,,W WASHINGTON ST & S ASHLEY ST,Washington & Ashley,0,
42.306126,0,2737,-83.536012,1918,,,RIDGE RD & CHERRY HILL RD,Ridge & Cherry Hill,0,
42.230077,0,2823,-83.699833,2006,,,PLATT RD & E ELLSWORTH RD,W- Platt south of Ellsworth,0,
42.306197,0,2736,-83.535902,1917,,,CHERRY HILL RD & RIDGE RD,Cherry Hill & Ridge,0,
42.274061,0,1734,-83.750879,869,,,W Madison St & S 1st St,N- W Madison at First St.,0,
42.272045,0,2389,-83.670744,1509,,,N DIXBORO RD & OLD DIXBORO RD,W- Dixboro north of River,0,
42.275014,0,1726,-83.720497,861,,,,N- Geddes Ave. east of Highland,0,
42.274453,0,1725,-83.717647,860,,,Geddes Ave & Awixa Road,N- Geddes Ave. west of Awixa,0,
42.275643,0,1728,-83.7245,863,,,Geddes Ave & Geddes Heights Dr,N- Geddes Ave. east of Geddes Hgts,0,
42.27544,0,1727,-83.723095,862,,,Geddes Ave & Ridgeway St,N- Geddes Ave. west of Ridgeway,0,
42.277021,0,1730,-83.730026,865,,,,N- Geddes Ave opp Elm Street,0,
42.27635,0,1729,-83.727657,864,,,,N- Geddes Ave. opp Linden Street,0,
42.279965,0,1732,-83.737226,867,,,FLETCHER ST & E WASHINGTON ST,W- Fletcher s of Washinton,0,
42.297067,0,2839,-83.719965,2022,,,MURFIN AVE,E- Murfin at Plymouth,0,
42.265787,0,1523,-83.750178,659,,,S Main St & Berkley Ave,E- S Main St opp Berkeley,0,
42.280344,0,2716,-83.730562,1884,,,WASHINGTON HTS,S - Washinton Hgts at Observatory,0,
42.256367,0,1748,-83.775464,883,,,Scio Church Road & Waltham Dr,N- Scio Church east of Waltham Dr.,0,
42.256438,0,1747,-83.773298,882,,,Scio Church Road & Covington Dr,N- Scio Church west of Covington,0,
42.256552,0,1746,-83.770045,881,,,Scio Church Road & Landmark Ct,N- Scio Church west of Landmark Ct,0,
42.256617,0,1745,-83.766918,880,,,Scio Church Road & Mershon Dr,N- Scio Church west of Mershon Dr.,0,
42.263542,0,1752,-83.779636,887,,,S Maple Road & Breckenridge Dr,E- S Maple op Breckenridger Dr,0,
42.26233,0,1751,-83.779601,886,,,S Maple Road & Keystone Lane,E- S Maple op Surrey Park,0,
42.260116,0,1750,-83.77955,885,,,S Maple Road & Dicken Dr,E- S Maple north of Dicken Dr.,0,
42.257477,0,1749,-83.778267,884,,,S Maple Road & Tudor,E- S Maple north of Tudor Dr..,0,
42.263852,0,1754,-83.765844,889,,,W Stadium Blvd & Maywood Ave,S- W Stadium Blvd at Maywood,0,
42.264928,0,1753,-83.768047,888,,,W Stadium Blvd & Stadium Ct,S- W Stadium Blvd east of Stadiu,0,
42.279506,0,1614,-83.751248,750,,,W Liberty St & Ann Arbor Railroad,N- W Liberty at Rail Road Tracks,0,
42.256274,0,1501,-83.695987,638,,,S HURON PKWY & SERVICE DR,W- Huron Pkwy south of Washtenaw,0,
42.248311,0,2009,-83.749471,1519,,,S Main St & Harbor Way,W- S Main St south of Ponds View,0,
42.218101,0,2500,-83.542403,1641,,,SOUTH SERVICE RD & Lakewood Shopping Center,Lakewood Mall,0,
42.236204,0,2243,-83.625769,1376,,,1st Ave & W Michigan Ave,E- First Ave. south of Michigan,0,
42.2427,0,2473,-83.747891,1614,,,BRIARWOOD CIR & E ANN ST,S- Briarwood Cir opp TCF Bank,0,
42.257967,0,2778,-83.675548,1960,,,GLENCOE HILLS DR,W - Glencoe South of Clark,0,
42.256035,0,2779,-83.67526,1961,,,GLENCOE HILLS DR,W - Glencoe South of Clark,0,
42.254075,0,2780,-83.673727,1962,,,GLENCOE HILLS DR,W - Glencoe north of Washtenaw,0,
42.25783,0,2781,-83.680892,1963,,,HOGBACK RD,W - Hogback south of Clark,0,
42.274869,0,1181,-83.731208,322,,,@ S.University & S University Ave,W- Washtenaw Ave south of S Unive,0,
42.272248,0,1182,-83.727879,323,,,,W- Washtenaw Ave. south of Hill St.,0,
42.282089,0,1179,-83.731182,320,,,S OBSERVATORY ST & E ANN ST,West side of Observatory at Ann,0,
42.249277,0,1213,-83.651512,354,,,Washtenaw Ave & Brookside Road,N- Washtenaw Ave west of Brookside,0,
42.267258,0,1185,-83.721544,326,,,Washtenaw & Austin Ave,W- Washtenaw Ave. south of Austin,0,
42.265455,0,1186,-83.719253,327,,,Washtenaw & Brockman Blvd,W- Washtenaw Ave. south of Brockman,0,
42.270443,0,1183,-83.725625,324,,,Washtenaw & Cambridge Road,W- Washtenaw Ave south of Cambridge,0,
42.268876,0,1184,-83.723599,325,,,,W- Washtenaw Ave. opp Wayne St.,0,
42.245878,0,2362,-83.754113,1476,,,Oakbrook Dr & Northbrook Pl,S- Oakbrook Dr. east of Northbrook,0,
42.262122,0,1187,-83.715017,328,,,Washtenaw & Tuomy Road,W- Washtenaw Ave btw Brockman and,0,
42.260612,0,1188,-83.713107,329,,,Washtenaw & Bedford Road,W- Washtenaw Ave north of Stadium,0,
42.253679,0,1425,-83.734201,562,,,S Industrial Hwy & Jewett Ave,E- S Industrial Hwy. north of Jewe,0,
42.298747,0,1055,-83.692634,201,,,Green Road & Green Brier Blvd,W- Green Rd. opp Greenbrier Blvd,0,
42.283823,0,1638,-83.752656,774,,,Miller Ave & Chapin St,S- Miller Ave. east of Chapin,0,
42.294823,0,1057,-83.692602,203,,,Green Road & Hubbard St,W- Green Rd. south of Hubbard St.,0,
42.296927,0,1056,-83.692596,202,,,Green Road & Frederick Dr,W- Green Rd. opp Frederick St.,0,
42.289192,0,1059,-83.692462,205,,,Green Road & Glazier Way,W- Green Rd. north of Glacier Way,0,
42.292728,0,1058,-83.692564,204,,,Green Road & Unknown,W- Green Rd. south of Larchmont St.,0,
42.288118,0,1061,-83.687063,207,,,,S- Glazier Way east of Tremont Dr.,0,
42.285955,0,1636,-83.758098,772,,,Miller Ave & Brooks Road,S- Miller Ave. opp Brooks,0,
42.290494,0,1063,-83.682046,209,,,N Earhart Road & Glacier Hills NH Dr,W- Earhart at Glacier Hills exit,0,
42.29051,0,1062,-83.681121,208,,,1200 Glacier Hills NH Dr,1200 Earhart at Glacier Hills Nursi,0,
42.288569,0,1643,-83.747576,779,,,W Summit St & N Main St,N- W Summit west of N. Main St.,0,
42.286559,0,1642,-83.748083,778,,,N Main St & Felch St,E- N Main St north of Felch,0,
42.256118,0,2206,-83.629655,1340,,,Huron River Dr & Oakwood Ave,N- Huron River Dr. west of Oakwood,0,
42.231816,0,1279,-83.679486,419,,,Meijer Gas Station & Carpenter Road,S- Meijer svc drive east of Carpen,0,
42.300809,0,2433,-83.704528,1573,,,S HURON PKWY & PLYMOUTH RD,W- Huron Prkwy S of Plymouth,0,
42.297997,0,2089,-83.720708,1223,,,Plymouth Ann Arbor Road & Murfin Ave,N- Plymouth Rd west of Murfin,0,
42.290462,0,2431,-83.714093,1571,,,BONISTEEL BLVD & BEAL AVE,N- Bonisteel W of Beal,0,
42.234989,0,2365,-83.60322,1479,,,Factory Ave & S Grove St,N- Factory St. east of Grove Rd.,0,
42.316663,0,2437,-83.699717,1577,,,Green Road & Whisperwood Dr,S- Green E of Whisperwood,0,
42.316458,0,2436,-83.702319,1576,,,Green Road & Whisperwood Dr,S- Green W of Whisperwood,0,
42.287302,0,2542,-83.722489,1682,,,Fuller St & Cedar Bend Dr,N-Fuller op UM Park & Ride,0,
42.245934,0,2546,-83.581686,1685,,,Michigan Ave & N Harris Road,N -E Michigan CVS Drug Store,0,
42.31394,0,2435,-83.707434,1575,,,NIXON RD & WESTBURY CT,E- Nixon N or Westbury,0,
42.215423,0,2547,-83.56502,1686,,,GROVE ST & LAKE IN THE WOODS BLVD,S -Grove east of Lake in the woods Blvd,0,
42.307846,0,2550,-83.766143,1689,,,Newport Road & Bird Road,W - Newport Rd opposite Bird Rd,0,
42.314179,0,2549,-83.692663,1688,,,Green Road & Burbank Dr,W- Green Rd s of N Burbank,0,
42.305567,0,2616,-83.734858,1760,,,PONTIAC TRL & BROOKSIDE DR,E - Pontiac north of Manor,0,
42.310865,0,2434,-83.707439,1574,,,Nixon Road & Clague School Dr,E- Nixon S of Clague School Drive,0,
42.260798,0,2622,-83.65286,1766,,,ELLIOT DR & Heart & Vascular,N - Elliot Dr at Heart and Vascular,0,
42.260801,0,2623,-83.652319,1767,,,Elliot Dr & STJ Heart & Vascular,S - Elliot Dr at Heart and Vascular,0,
42.296683,0,2620,-83.784284,1764,,,Miller Ave & Kuehnle Ave,S - Miller east of Kuehnle,0,
42.2967,0,2621,-83.784206,1765,,,Miller Ave & Kuehnle Ave,N - Miller opp Kuehnle,0,
42.251416,0,2008,-83.749628,1142,,,S Main St & Fieldcrest Dr,W- S Main St. south of Fieldcrest,0,
42.289116,0,1073,-83.692223,216,,,GREEN RD & WINDEMERE DR,E- Green Rd. north of Glazier Way,0,
42.24527,0,2012,-83.756874,1146,,,W Eisenhower Pkwy & Northbrook Pl,N- Eisenhower at Nortbrook,0,
42.244618,0,2013,-83.756452,1147,,,W Eisenhower Pkwy & Waymarket Road,S- Eisenhower Parkway east of Way,0,
42.246316,0,2010,-83.749824,1144,,,Oakbrook Dr & S Main St,N- Oakbrook Dr. west of S. Main,0,
42.245954,0,2011,-83.754272,1145,,,Oakbrook Dr & Northbrook Pl,N- Oakbrook Dr east of Northbrook,0,
42.26843,0,1531,-83.758633,667,,,Pauline Blvd & Birk Ave,N- Pauline west of Seventh St.,0,
42.26853,0,1530,-83.75424,666,,,Pauline Blvd & Edgewood Ave,N- Pauline opp Edgewood,0,
42.245255,0,2014,-83.756388,1148,,,Northbrook Pl & Oakbrook Dr,E- Northbrook north of Eisenhower,0,
42.277027,0,1528,-83.74864,664,,,S Main St & Packard St,E- S Main St north of Packard (,0,
42.274477,0,1527,-83.748822,663,,,S Main St & Ann Arbor Railroad,E- S Main St north of Madison S,0,
42.288235,0,1071,-83.687128,214,,,Glazier Way & Tremont Dr,N- Glazier Way opposite Tremont St.,0,
42.272012,0,1525,-83.749599,661,,,,E- S Main St north of Hill St.,0,
42.269504,0,1524,-83.750115,660,,,S Main St & E Hoover Ave,E- S Main St n of W. Hoover,0,
42.288157,0,1072,-83.689602,215,,,Glazier Way & Bardstown Trl,N- Glazier Way east of Bardstown Tr,0,
42.191563,0,2830,-83.699019,2013,,,WARNER CREEK DR & PLATT RD,Warner Creek Dr at Platt,0,
42.281472,0,1556,-83.747451,692,,,E Huron & S 4th Ave,N- Huron west of N.Fourth Ave.,0,
42.295062,0,2408,-83.700489,1547,,,Hubbard St & Stone Road,S- Hubbard east of Stone Dr,0,
42.268378,0,1554,-83.756729,690,,,Pauline Blvd & Hutchins Ave,S- Pauline east of Hutchens,0,
42.268425,0,1555,-83.754443,691,,,Pauline Blvd & Edgewood Ave,S- Pauline east of Edgewood,0,
42.281804,0,1560,-83.759375,696,,,W Huron & N 7th St,N- W Huron  west of Seventh St.,0,
42.281896,0,1561,-83.761801,697,,,W Huron & Arbana Dr,N- W Huron east of Arbana,0,
42.281584,0,1558,-83.751619,694,,,W Huron & N 1st St,N- W Huron  west of First St.,0,
42.281641,0,1559,-83.754244,695,,,W Huron & Chapin St,N- W Huron  west of Chapin (Lurie,0,
42.281956,0,1562,-83.764292,698,,,,N- W Huron east of Edmund Place,0,
42.295542,0,2409,-83.70532,1548,,,HUBBARD ST & PLYMOUTH RD,N- Hubbard west of Huron Pkwy,0,
42.295182,0,2410,-83.703967,1549,,,Hubbard St & Huron Pkwy,S- Hubbard east of Huron Pkwy,0,
42.285777,0,1626,-83.780376,762,,,N MAPLE RD & DEXTER AVE,E- N Maple north of Dexter Rd.,0,
42.261631,0,2403,-83.566587,1504,,,Wiard Blvd & Woodruff Lane,W- Wiard west side opp Woodruff,0,
42.230777,0,1408,-83.681524,546,,,Ellsworth Road & Carpenter Road,N- Ellsworth west of Carpenter (ac,0,
42.230643,0,1409,-83.68823,547,,,E Ellsworth Road & I- 94 (Bus),N- Ellsworth at Trade Center Dr.,0,
42.289696,0,1627,-83.780561,763,,,N Maple Road & Haisley Dr,E- N Maple north of Haisley,0,
42.23079,0,2350,-83.699605,1465,,,Platt Road & E Ellsworth Road,E- Platt Rd. north of Ellsworth,0,
42.240389,0,2349,-83.769632,1464,,,Ann Arbor Saline Road & Oak Valley Dr,E- Ann Arbor - Saline north of Oak,0,
42.244935,0,2351,-83.657362,1466,,,Packard Road & Bergen Ave,S- Packard opp Bergen Ave,0,
42.259698,0,2346,-83.583478,1461,,,E CLARK RD & WASHTENAW AVE,N- Clark Rd. west of Dawn,0,
42.260869,0,2347,-83.587754,1462,,,E Clark Road & Devon St,N- Clark Rd. west of Devon St,0,
42.246111,0,1862,-83.603134,997,,,E Cross Ave & N Prospect Road,N- Cross St. west of Prospect,0,
42.290234,0,2176,-83.713825,1310,,,236 Bonisteel Blvd & Beal Ave,S- Bonisteel west of Beal,0,
42.29335,0,1630,-83.777367,766,,,MILLER RD & FULMER ST,S- Miller Ave. east of Fulmer,0,
42.245919,0,1864,-83.61282,999,,,,N- Cross St. at Huron Street,0,
42.246019,0,1863,-83.609078,998,,,E Cross Ave & N River St,N- Cross St. west of River St,0,
42.244744,0,1514,-83.727727,651,,,E Eisenhower Pkwy & Hayes Ct,N- Eisenhower Pkwy west of Hayes St,0,
42.294875,0,1075,-83.692357,218,,,GREEN RD & LARCHMONT DR,E- Green Rd. opp Hubbard St.,0,
42.226721,0,2685,-83.56283,1828,,,MCCARTNEY AVE & CEDARCLIFF DR,E-McCartney opp Cedarcliff,0,
42.281162,0,2682,-83.741598,1825,,,E Huron & S State St,S - Huron W of State,0,
42.281256,0,2681,-83.741265,1824,,,E Huron & S State St,N - Huron W of State,0,
42.250932,0,1426,-83.732554,563,,,2445 S Industrial Hwy & Jewett Ave,E- S Industrial Hwy. south of Jewe,0,
42.282069,0,2683,-83.740799,1826,,,N STATE ST & E ANN ST,E- State at Ann,0,
42.277941,0,2677,-83.749444,1820,,,W William St & S Main St,S - William West of Main,0,
42.231075,0,1876,-83.593534,1011,,,SERVICE DR & EMERICK ST,S- Service Dr. west of Gault Vill,0,
42.284349,0,1793,-83.77645,928,,,2230 Dexter Ave & Unknown,N- Dexter Rd w. of Lyn Anne Ct.,0,
42.243779,0,1275,-83.680513,415,,,Carpenter Road & Packard Road,W- Carpenter Rd. south of Packard,0,
42.241624,0,1276,-83.680468,416,,,Carpenter Road & Packard Road,W- Carpenter south of Packard,0,
42.239319,0,1277,-83.680409,417,,,CARPENTER RD & CARPENTER PL,W- Carpenter Rd. at Carpenter Pla,0,
42.245094,0,1270,-83.693936,410,,,PACKARD ST & PARKWOOD AVE,S- Packard west of Fernwood,0,
42.228904,0,2286,-83.621748,1405,,,Jefferson Ave & Brooks St,N- Jefferson at Brooks,0,
42.245169,0,1272,-83.689862,412,,,PACKARD ST & BRANDYWINE ST,S- Packard west of Charing Cross,0,
42.245352,0,1273,-83.684885,413,,,PACKARD ST & BURTON AVE,S- Packard E of Burton,0,
42.264752,0,2251,-83.658017,1384,,,,S- Elliot Dr at St Joe Dialysis,0,
42.262828,0,2253,-83.652879,1385,,,Heart & Vascular & ELLIOT DR,N- McAuley Health Center at Heart,0,
42.236878,0,1278,-83.680342,418,,,CARPENTER RD & CENTER VALLEY DR,W- Carpenter south of CenterValley,0,
42.282291,0,1790,-83.76688,925,,,Dexter Ave & Wildwood Ave,N- Dexter Rd east of Wildwood,0,
42.229895,0,2249,-83.718865,1382,,,W Ellsworth Road & Stone School Road,N- Ellsworth Rd. east of Stone Sch,0,
42.283425,0,1792,-83.772223,927,,,Dexter Ave & Doty Ave,N- Dexter Rd west of Doty,0,
42.287102,0,1169,-83.728317,310,,,Fuller St & Huron River,N- Fuller Rd. btw river and Maiden,0,
42.282153,0,1176,-83.738723,317,,,E Ann St & N Ingalls St,S- Ann St. at Ingalls,0,
42.280666,0,1175,-83.740911,316,,,S State St & E Huron,W- State St south of Huron,0,
42.282396,0,1174,-83.740978,315,,,N State St & E Ann St,W- State St north of Ann St.,0,
42.280457,0,2740,-83.74954,1920,,,W WASHINGTON ST & S ASHLEY ST,Washington & Ashley,0,
42.302617,0,2738,-83.706698,1921,,,PLYMOUTH RD & NIXON RD,N - Plymouth east of Nixon,0,
42.278712,0,2741,-83.747504,1922,,,S 4TH AVE & BTC MALL DR,BTC West side 4th,0,
42.238298,0,2742,-83.59707,1923,,,ECORSE RD & PARKWOOD AVE,E - Ecorse at Parkwood,0,
42.288004,0,2744,-83.689759,1925,,,GLAZIER WAY & BARDSTOWN TRL,S- Glazier Way at Bardstown,0,
42.277614,0,2661,-83.743255,1804,,,Thompson St & E William St,W- Thompson south of William,0,
42.256352,0,1786,-83.739745,921,,,S State St & Unknown,E- S State St at 2051 S  State,0,
42.321136,0,2748,-83.487541,1929,,,UNNAMED ST & CANTON CENTER RD,Meijer - Ford Rd & Canton Center,0,
42.260484,0,1357,-83.739605,496,,,Stimson St & S State St,S- Stimson east of State St.,0,
42.268204,0,1534,-83.76721,670,,,Pauline Blvd & S Arbordale Dr,N- Pauline west of Arbordale,0,
42.259178,0,1697,-83.716407,832,,,Medford Road & St Francis Dr,N- Medford at St  Francis,0,
42.260693,0,1698,-83.715996,833,,,E Stadium Blvd & St Francis Dr,N- E Stadium west of St  Francis Dr,0,
42.256794,0,1695,-83.710977,830,,,Manchester Road & Medford Road,W- Manchester at Medford,0,
42.257505,0,1696,-83.714324,831,,,Medford Road & Needham Road,N- Medford west of Needham,0,
42.260836,0,1701,-83.730617,836,,,E Stadium Blvd & Packard St,N- E Stadium west of Packard,0,
42.260728,0,1702,-83.734096,837,,,E Stadium Blvd & Ferndale Pl,N- E Stadium west of Ferndale,0,
42.261158,0,1699,-83.720754,834,,,E Stadium Blvd & Brockman Blvd,N- E Stadium west of Brockman,0,
42.260986,0,1700,-83.72558,835,,,E Stadium Blvd & Ferdon Road,N- E Stadium west of Ferdon,0,
42.261706,0,1703,-83.737619,838,,,E Stadium Blvd & E Park Pl,N- E Stadium west of E  Park,0,
42.26392,0,1704,-83.744855,839,,,E Stadium Blvd & Ann Arbor Railroad,N- E Stadium west of Crisler,0,
42.288761,0,2279,-83.765408,1398,,,,S- Miller Ave. east of Newport Pl.,0,
42.262186,0,1227,-83.714871,368,,,Washtenaw & Tuomy Road,E- Washtenaw Ave. btw Stadium and,0,
42.266062,0,1228,-83.719861,369,,,Washtenaw & Brockman Blvd,E- Washtenaw Ave. north of Brockman,0,
42.259183,0,1225,-83.709566,366,,,Washtenaw & Sheridan Dr,N- Washtenaw Ave. west of Sheridan,0,
42.260522,0,1226,-83.712799,367,,,2350 Washtenaw & Tuomy Road,N- Washtenaw btw Stadium and,0,
42.258399,0,1223,-83.703548,364,,,Washtenaw & Arlington Blvd,N- Washtenaw Ave. west of Arlington,0,
42.25839,0,1224,-83.710099,365,,,MANCHESTER RD,N- Medford/Manchester,0,
42.25734,0,1221,-83.698254,362,,,WASHTENAW AVE & S HURON PKWY,N- Washtenaw Ave. west of Huron Pkw,0,
42.257978,0,1222,-83.701402,363,,,Washtenaw & Glenwood Road,N- Washtenaw Ave. west of Glenwoo,0,
42.253615,0,1219,-83.678382,360,,,Washtenaw Road & Crystal Dr,N- Washtenaw Ave. opp Crystal,0,
42.256203,0,1220,-83.692625,361,,,Washtenaw & Chalmers Dr,N- Washtenaw Ave west of Chalmers,0,
42.281551,0,1584,-83.753854,720,,,W Huron & 3rd St,S- W Huron east of Third St.,0,
42.230598,0,1817,-83.649025,952,,,Ellsworth Road & Fairway Trl,N- Ellsworth Rd. west of Fairhills,0,
42.254574,0,2197,-83.623268,1331,,,N HURON RIVER DR & N HURON ST,S- Huron River Dr. east of LeForge,0,
42.256594,0,2196,-83.63367,1330,,,Huron River Dr & Cornell Road,S- Huron River Dr. east of Cornell,0,
42.277475,0,1240,-83.740805,380,,,S State St & E William St,W- S State St south of William,0,
42.275095,0,1241,-83.740744,381,,,S State St & S University Ave,W- S State St north of S U,0,
42.27306,0,1242,-83.740713,382,,,S State St & Monroe St,W- S State St south of Monroe S,0,
42.269692,0,1243,-83.739358,383,,,Packard St & S State St,W- Packard south of State,0,
42.26789,0,1244,-83.737392,384,,,Packard St & Mc Kinley Ave,W- Packard south of McKinley,0,
42.265622,0,1245,-83.735007,385,,,1224 Packard St & Wells St,W- Packard south of Wells,0,
42.264077,0,1246,-83.733298,386,,,Packard St & Granger Ave,W- Packard south of Granger,0,
42.261796,0,1247,-83.730846,387,,,Packard St & Henry St,W- Packard south of Henry St.,0,
42.259688,0,1248,-83.729153,388,,,Packard St & Iroquois Ave,W- Packard south of Stadium St.,0,
42.257371,0,1249,-83.727493,389,,,2016 Packard St & Jorn Ct,W- Packard btw Jorn Ct and Harpst,0,
42.255941,0,2198,-83.629253,1332,,,Huron River Dr & Oakwood Ave,S- Huron River Dr. east of Oakwood,0,
42.316931,0,2690,-83.72097,1837,,,DHU VARREN RD & FOXWAY DR,N - Dhu Varren at Birchwood,0,
42.291084,0,1648,-83.758224,784,,,Brooks Road & Pearl St,E- Brooks north of Pearl,0,
42.293541,0,1649,-83.758271,785,,,Brooks Road & Robin Road,E- Brooks opp Robin,0,
42.223893,0,2506,-83.617948,1647,,,HURON ST & JOE HALL DR,W -Huron south of James L Hart Pkwy,0,
42.297521,0,1651,-83.765629,787,,,Sunset Road & Newport Road,N- Sunset at Newport Rd.,0,
42.28876,0,1644,-83.748594,780,,,W Summit St & Ann Arbor Railroad,N- W Summit east of Wildt at rail,0,
42.289033,0,1645,-83.752451,781,,,W Summit St & Spring St,N- W Summit at Spring St.,0,
42.239675,0,2585,-83.582917,1728,,,S HARRIS RD & CRESTWOOD AVE,W Harris at Duncan,0,
42.288938,0,1647,-83.758023,783,,,W Summit St & Brooks Road,N- W Summit at Brooks,0,
42.252333,0,2583,-83.629345,1726,,,Oakwood Ave & Mayhew,E - Oakwood at EMU Student Center,0,
42.294169,0,2584,-83.709558,1727,,,HAYWARD ST & HAYWARD ST,N - Hayward east of Draper,0,
42.230435,0,2579,-83.670747,1724,,,Ellsworth Road & Meijer Car Wash Dr,S- Ellsworth east of Crystal Creek,0,
42.230585,0,2580,-83.675046,1725,,,Ellsworth Road & Beech Dr,S- Ellsworth east of Ridgewood St,0,
42.300891,0,1652,-83.765897,788,,,Newport Road & Down Up Cir,E- Newport north of Downup Cir,0,
42.304359,0,1653,-83.76597,789,,,Newport Road & Down Up Cir,E- Newport north of Downup Circle,0,
42.269329,0,2575,-83.73884,1720,,,Packard St & Arch St,E- Packard at Arch,0,
42.237725,0,2576,-83.582851,1721,,,S HARRIS RD & HAWTHORNE AVE,W- Harris at Parkwood,0,
42.286984,0,1593,-83.760602,729,,,Miller Ave & Red Oak Road,N- Miller Ave. east of Red Oak,0,
42.28126,0,2030,-83.744728,1164,,,E Huron & S Division St,S- E Huron west of Division,0,
42.269961,0,1442,-83.750217,579,,,S Main St & E Davis Ave,W- S Main St south of Davis,0,
42.272478,0,1441,-83.749605,578,,,S Main St & W Mosley St,W- S Main St south of Mosley,0,
42.247548,0,1467,-83.700088,604,,,Platt Road & Norwood St,E- Platt Rd. north of Norwood,0,
42.278224,0,1436,-83.740711,573,,,S State St & N University Ave,E- S State St south of North U,0,
42.267776,0,1435,-83.740482,572,,,S State St & Mc Kinley Ave,E- S State St north of McKinley,0,
42.266032,0,1434,-83.740441,571,,,S State St & Dewey St,E- S State St north of Dewey,0,
42.264354,0,1433,-83.740299,570,,,S STATE ST & GRANGER AVE,E- S State St north of Granger,0,
42.273893,0,1440,-83.749136,577,,,S Main St & E Madison St,W- S Main St south of Madison,0,
42.276407,0,1439,-83.74884,576,,,S Main St & W Jefferson St,W- S Main St north of Jefferson,0,
42.279534,0,1438,-83.744575,575,,,337 E.Liberty & S Division St,N- E Liberty btw Division and Fifth,0,
42.279417,0,1437,-83.741814,574,,,601 E Liberty & Maynard St,N- E. Liberty at Maynard,0,
42.286844,0,1115,-83.703473,258,,,Huron Pkwy & Glazier Way,W- Huron Parkway south Glazier Way,0,
42.286833,0,1110,-83.728676,253,,,Fuller St & Huron River,S- Fuller Rd between Maiden Ln,0,
42.255883,0,2573,-83.661243,1713,,,GOLFSIDE DR & LAKERIDGE ST,W- Golfside north of Lakeridge,0,
42.247627,0,2746,-83.760986,1927,,,ANN ARBOR SALINE RD & BROOKFIELD DR,W. Ann Arbor Saline Rd at Brookfiel,0,
42.287051,0,1111,-83.723135,254,,,Fuller St & Cedar Bend Dr,S- Fuller Rd east of Cedar Bend Dr.,0,
42.244648,0,1463,-83.711828,600,,,Packard Road & Hikone Road,S- Packard west of Hikone,0,
42.24969,0,2304,-83.680517,1420,,,Carpenter Road & Central Blvd,E- Carpenter Rd. north of Central,0,
42.240904,0,2307,-83.618332,1423,,,W Michigan Ave & Ballard St,S- Michigan Ave. west of Hamilton,0,
42.23919,0,2448,-83.769017,1589,,,Oak Valley Dr & Bent Trail Dr,N- Oak Valley W of Bent Trail,0,
42.23945,0,2309,-83.635286,1425,,,S Congress St & N Mansfield St,N- Congress east of Mansfield St,0,
42.240993,0,2308,-83.628584,1424,,,Congress Ave & Oakwood St,N- Congress east of Oakwood Ave,0,
42.236891,0,2311,-83.642962,1427,,,Congress St & Merrill Ave,W- Congress West of Merrill Ave,0,
42.23815,0,2310,-83.639247,1426,,,Congress St & Stevens Dr,N- Congress west of Mansfield St,0,
42.23286,0,2313,-83.645058,1429,,,Hewitt Road S & Ardis Dr,W- Hewitt Rd. north of Fairway Trl,0,
42.235002,0,2312,-83.645903,1428,,,Hewitt Road S & N Hewitt Road,W- Hewitt Rd. south of Congress St,0,
42.312304,0,2440,-83.692982,1581,,,Green Road & Burbank Dr,W- Green S of Burbank,0,
42.240133,0,2445,-83.759419,1586,,,Lohr Road & Oak Valley Dr,W- Lohr at Kohls,0,
42.236313,0,2446,-83.759967,1587,,,Oak Valley Dr & S Lohr Road,N- Oak Valley W of Lohr,0,
42.277416,0,2443,-83.780231,1584,,,S Maple Road & Winewood Ave,W- S Maple at Krogers,0,
42.241616,0,2444,-83.765971,1585,,,Waters Road & Lohr Road,S- Lohr east of AA Saline Rd,0,
42.289061,0,1595,-83.765859,731,,,Miller Ave & Newport Pl,N- Miller Ave. west of Newport Rd.,0,
42.288012,0,1594,-83.763266,730,,,Miller Ave & Linda Vista,N- Miller Ave. west of Pomona,0,
42.291319,0,1597,-83.771713,733,,,Miller Ave & Saunders Cres,N- Miller Ave. west of Saunders Crs,0,
42.289821,0,1596,-83.767854,732,,,Miller Ave & Pine Tree Dr,N- Miller Ave. west of Pinetree,0,
42.293608,0,1599,-83.777623,735,,,Miller Ave & Fulmer St,N- Miller Ave. west of Fulmer,0,
42.292808,0,1598,-83.775565,734,,,,N- Miller Ave. west of Hatcher Cres,0,
42.289825,0,1601,-83.78071,737,,,N Maple Road & Pamela Ave,W- N Maple south of Pamela (Alan,0,
42.292921,0,1600,-83.780807,736,,,N Maple Road & Sequoia Pkwy,W- N Maple south of Sequoia Park,0,
42.284936,0,1603,-83.780574,739,,,N Maple Road & Dexter Ann Arbor Road,W- N Maple south of Dexter Rd.,0,
42.287272,0,1602,-83.780611,738,,,N Maple Road & N Maple Estates,W.Maple north of Dexter,0,
42.244153,0,1365,-83.736051,504,,,E Eisenhower Pkwy & S State St,N- Eisenhower west of Boardwalk,0,
42.316459,0,2439,-83.693311,1579,,,Green Road & Gettysburg Road,W- Green S of Gettysburg,0,
42.247184,0,1363,-83.730968,502,,,S Industrial Hwy & AATA Garage Dr,W- South Industrial Hwy at AATA,0,
42.244411,0,1364,-83.730192,503,,,E Eisenhower Pkwy & S Industrial Hwy,N- Eisenhower Pkwy w S Industrial,0,
42.25347,0,1361,-83.734195,500,,,S Industrial Hwy & Jewett Ave,W- South Industrial opp Jewe,0,
42.251045,0,1362,-83.732697,501,,,S Industrial Hwy & AATA Garage Dr,W- South Industrial at Bryant Hea,0,
42.248566,0,2226,-83.616062,1359,,,N Adams St & W Forest Ave,E- Adams St. south of Forest St.,0,
42.277049,0,1496,-83.699019,633,,,Huron Pkwy & Fuller St,W- Huron Pkwy south of Fuller Rd (G,0,
42.271421,0,1497,-83.697531,634,,,Huron Pkwy & Huron River Dr,W- Huron Pkwy north of Huron River,0,
42.229928,0,1261,-83.713326,401,,,E Ellsworth Road & Shadowood Dr,S- Ellsworth Rd. opp Shadowood St,0,
42.267752,0,1499,-83.771146,636,,,W Stadium Blvd & Pauline Blvd,W- W Stadium Blvd at Pauline,0,
42.258213,0,1500,-83.695559,637,,,,W- Huron Pkwy north of Washtenaw (B,0,
42.246312,0,2037,-83.587563,1171,,,E Cross Ave & Browning,N- Cross St. East of Browning St,0,
42.257223,0,1472,-83.695532,609,,,,E- Huron Pkwy north of Washtenaw,0,
42.230099,0,1328,-83.710478,467,,,E Ellsworth Road & Jonathan Ct,N- Ellsworth Rd. west of Jonathan S,0,
42.303754,0,2217,-83.707355,1350,,,NIXON RD & PLYMOUTH RD,W- Nixon Rd. btw Plymouth & Huro,0,
42.242071,0,1322,-83.700103,461,,,Platt Road & Redwood Ave,W- Platt Rd. south of Redwood,0,
42.29613,0,1650,-83.758374,786,,,Brooks Road & Sunset Road,E- Brooks at Sunset,0,
42.235817,0,1324,-83.699993,463,,,Platt Road & Williamsburg Dr,W- Platt Rd. opp Williamsburg,0,
42.238633,0,1323,-83.700074,462,,,Platt Road & Verle Ave,W- Platt Rd. south of Verle,0,
42.283215,0,2693,-83.701193,1861,,,S HURON PKWY & UNNAMED ST,Huron Pkwy at HHS,0,
42.243572,0,1139,-83.616105,281,,,WASHTENAW AVE & N HAMILTON ST,S- Washtenaw Ave. at Adams,0,
42.267368,0,2695,-83.750201,1863,,,S Main St & W Keech Ave,E - Main s of Keech,0,
42.24651,0,2694,-83.700213,1862,,,Platt Road & Cascade Dr,W - Platt at Carlton Ct,0,
42.298012,0,1022,-83.736822,168,,,PONTIAC TRL & BARTON DR,W- Pontiac Trl opposite Taylor Ave.,0,
42.294999,0,1023,-83.737986,169,,,PONTIAC TRL & ARGO DR,W- Pontiac Trl south of Argo Dr.,0,
42.232363,0,2699,-83.601242,1867,,,S Grove St & Tyler Road,E- Grove N of Tyler,0,
42.233988,0,2698,-83.61282,1866,,,Spring Ave & Bell St,N - Spring btw Bell & Casler,0,
42.282711,0,2701,-83.780281,1869,,,N Maple Road & Maple Village Dr,E - N Maple at Maple Village,0,
42.282731,0,2700,-83.780469,1868,,,N Maple Road & Maple Village Dr,W - N Maple at Maple Village,0,
42.303922,0,1020,-83.735153,166,,,PONTIAC TRL & BROOKSIDE DR,W- Pontiac Trl north of Brookside,0,
42.301275,0,1021,-83.735609,167,,,PONTIAC TRL & STARWICK DR,W- Pontiac Trl opposite Starwick,0,
42.303488,0,1079,-83.692522,222,,,GREEN RD & KILBURN PARK CIR,E- Green Rd. south of Plymouth Rd.,0,
42.19666,0,2834,-83.698899,2017,,,PLATT RD & PRIMROSE LN,E- Platt at Primrose,0,
42.301346,0,1016,-83.735365,162,,,PONTIAC TRL & STARWICK DR,E- Pontiac Trl north of Starwick,0,
42.303886,0,1017,-83.734934,163,,,PONTIAC TRL & BROOKSIDE DR,E- Pontiac Trl north of Brookside,0,
42.230374,0,1326,-83.702174,465,,,E ELLSWORTH RD,N- Ellsworth Rd. btw Platt and Bra,0,
42.288992,0,1646,-83.755467,782,,,W Summit St & Miner St,N- W Summit east of Miner,0,
42.240511,0,1831,-83.619682,966,,,W Michigan Ave & Ballard St,S- Michigan Ave at Ypsi Police Dept,0,
42.245796,0,1832,-83.613118,967,,,W Cross Ave & N Huron St,S- Cross St. east of Huron,0,
42.241266,0,2502,-83.582764,1643,,,RUSSELL ST & S HARRIS RD,N- Russell at Harris,0,
42.233883,0,1827,-83.632444,962,,,W Michigan Ave & S Mansfield St,S- Michigan Ave. east of Mansfield,0,
42.235762,0,1828,-83.628876,963,,,W Michigan Ave & Warner Ave,S- Michigan Ave. at Brown Chapel,0,
42.193804,0,2828,-83.71319,2011,,,CAMPBELL RD & E MICHIGAN AVE,E- Cambell south of Michigan,0,
42.231932,0,2501,-83.5657,1642,,,TYLER RD & WOODGLEN AVE,Tyler & Nash,0,
42.245921,0,1833,-83.609886,968,,,E Cross Ave & N River St,S- Cross St. west of River St,0,
42.245994,0,1834,-83.606171,969,,,,Cross St. at N. Park,0,
42.284334,0,1801,-83.776548,936,,,Dexter Ave & Fairview Ave,S- Dexter Rd. west of Lyn Anne Ct.,0,
42.230832,0,1971,-83.644117,1106,,,Hewitt Road S & Ellsworth Road,E- Hewitt Rd. north of Ellsworth,0,
42.300251,0,2339,-83.693264,1455,,,UM Grn RD P&R,Green Rd. in Park&Ride Lot at,0,
42.2876,0,2340,-83.71474,1456,,,Fuller St & Beal Ave,N- Fuller Rd west of Beal,0,
42.287465,0,2341,-83.714846,1457,,,Fuller St & Beal Ave,S- Fuller Rd. west of Beal,0,
42.266763,0,2334,-83.776401,1450,,,PAULINE BLVD & PAULINE CT,S- Pauline east of Pauline Ct,0,
42.250339,0,2400,-83.749501,1518,,,,W- S Main St opp Lake Village Dr,0,
42.233049,0,1965,-83.619413,1100,,,Perry St & Harriet Ave,W- Perry St. south of Harriet,0,
42.231172,0,1966,-83.620282,1101,,,Monroe Ave & Hawkins St,N- Monroe at Hawkins,0,
42.240249,0,2402,-83.633023,1515,,,S Congress St & N Wallace Blvd,N- Congress west of Wallace,0,
42.290808,0,2083,-83.737672,1217,,,Plymouth Ann Arbor Road & Broadway,S- Plymouth Rd. east of Broadway,0,
42.254039,0,2007,-83.750376,1517,,,S Main St & Ann Arbor Saline Road,W- S Main St south of Ann Arbor,0,
42.295356,0,1799,-83.782065,934,,,MILLER RD,S- Miller Ave. west of Maple,0,
42.287346,0,2342,-83.717871,1458,,,Fuller St & Bonisteel Blvd,S- Fuller Rd. btw Bonisteel and Be,0,
42.275928,0,1678,-83.734613,1510,,,Church St & S University Ave,W- Church north of S Univ,0,
42.236047,0,1973,-83.645376,1108,,,Congress St & Hewitt Road S,S- Congress east of Hewitt,0,
42.272108,0,2388,-83.670537,1512,,,N DIXBORO RD & OLD DIXBORO RD,E- Dixboro Rd btwn River and Geddes,0,
42.26014,0,1498,-83.694512,635,,,,W- Huron Pkwy south of Boulder Dr.,0,
42.297889,0,2088,-83.721225,1222,,,Plymouth Ann Arbor Road & Murfin Ave,S - Plymouth Rd. @ Murfin,0,
42.212363,0,2499,-83.61574,1640,,,TOWNSHIP HALL DR & HURON RIVER LN,Ypsilanti Township Civic Center,0,
42.271911,0,1542,-83.779916,678,,,S Maple Road & Bens St,E- S Maple south of Liberty (Dis,0,
42.230238,0,1823,-83.656663,958,,,Ellsworth Road & Roundtree Blvd,S- Ellsworth  east of Roundtree Blv,0,
42.27847,0,1037,-83.730983,183,,,Observatory St & N University Ave,E- Observatory St north of N U,0,
42.256709,0,1744,-83.763756,879,,,Scio Church Road & Greenview Dr,N- Scio Church west of Greenview,0,
42.261997,0,1742,-83.757453,877,,,S 7th St & PHS7 Dr,W- S 7th opp Pioneer HS,0,
42.268266,0,1739,-83.758306,874,,,S 7th St & Pauline Blvd,W- S 7th St south of Paulin,0,
42.265718,0,1740,-83.758217,875,,,S 7th St & Franklin Blvd,W- S 7th St north of Franklin,0,
42.273299,0,1737,-83.75846,872,,,S 7th St & Princeton Ave,W- S 7th St between Madison,0,
42.243969,0,2109,-83.754373,1243,,,W Eisenhower Pkwy & Weatherstone Dr,N- Eisenhower P e of Northbrook,0,
42.274039,0,1735,-83.754916,870,,,W Madison St & 4th St,N- W Madison west of Fourth St.,0,
42.273973,0,1736,-83.757517,871,,,W Madison St & 6th St,N- W Madison west of Sixth St.,0,
42.267008,0,1538,-83.776379,674,,,Pauline Blvd & Pauline Ct,N- Pauline opp Pauline Court,0,
42.266415,0,1539,-83.779745,675,,,S Maple Road & Pauline Blvd,E- S Maple north of Pauline,0,
42.284921,0,2142,-83.798843,1276,,,Jackson Road & S Wagner Road,S- Jackson Rd. east of Wagner Rd,0,
42.269243,0,1540,-83.779815,676,,,S Maple Road & Pennsylvania Ave,E- S Maple north of Pennsylvania,0,
42.263817,0,1755,-83.763657,890,,,W Stadium Blvd & Greenview Dr,S- W Stadium Blvd at Greenview,0,
42.264216,0,1757,-83.759767,892,,,Franklin Blvd & W Stadium Blvd,E- Franklin St. north of W.Stadium,0,
42.265338,0,1758,-83.758379,893,,,Franklin Blvd & S 7th St,S- Franklin St. at Seventh,0,
42.268609,0,1759,-83.758221,894,,,S 7th St & Pauline Blvd,E- S 7th north of Pauline,0,
42.270371,0,1760,-83.758292,895,,,S 7th St & W Davis Ave,E- S 7th north of Davis,0,
42.272878,0,1761,-83.758346,896,,,S 7th St & Princeton Ave,E- S 7th north of Princeton,0,
42.273917,0,1762,-83.757415,897,,,W Madison St & 6th St,S- W Madison opp Sixth St.,0,
42.273933,0,1763,-83.754992,898,,,W Madison St & 4th St,S- W Madison  opposite Fourth St.,0,
42.274036,0,1764,-83.751275,899,,,W Madison St & S 1st St,S- W Madison  at 1st St,0,
42.244893,0,1509,-83.708766,646,,,Packard Road & Easy St,N- Packard west of Easy St.,0,
42.23321,0,1964,-83.617492,1099,,,S HAMILTON ST & HARRIET ST,W- Hamilton south of Harriet,0,
42.244109,0,1512,-83.720025,649,,,E Eisenhower Pkwy & Stone School Road,N- Eisenhower Pkwy west of Stone Sc,0,
42.268042,0,1536,-83.772505,672,,,Pauline Blvd & W Stadium Blvd,N- Pauline west of Stadium,0,
42.244375,0,1511,-83.717102,648,,,E EISENHOWER PKWY,N- Eisenhower Pkwy between Pac1,0,
42.221552,0,1884,-83.572677,1019,,,Harry St & Grove Road,W- Harry at Grove Rd.,0,
42.242862,0,2467,-83.748062,1608,,,BRIARWOOD CIR & E ANN ST,N- Briarwood Cir @ TCF Bank,0,
42.222194,0,2796,-83.618185,1978,,,HURON ST & JOE HALL DR,W- Huron south of Joe Hall Dr.,0,
42.213114,0,2795,-83.621103,1977,,,Paint Creek Crossing,Paint Creek (Kroger),0,
42.2033,0,2794,-83.597885,1976,,,TEXTILE RD & CHERRYWOOD DR,Ford Heritage Park,0,
42.202907,0,2793,-83.570823,1975,,,TEXTILE RD & HURON RIVER LN,N - Textile Rd west of Huron River Dr,0,
42.211815,0,2792,-83.589675,1974,,,S HURON RIVER DR & BIG PINE DR,Schooner Cove,0,
42.255098,0,2791,-83.700467,1973,,,PLATT RD,W - Platt Rd at Juvenile Center,0,
42.247677,0,2790,-83.719853,1972,,,PACKARD ST & STONE SCHOOL RD,E - Packard at Stone School,0,
42.197628,0,2819,-83.700921,2002,,,E MICHIGAN AVE,Pittsfield Township Hall,0,
42.250887,0,1216,-83.664556,357,,,Washtenaw Road & Maple Dr,N- Washtenaw btw Foster and M,0,
42.250075,0,1215,-83.659427,356,,,Washtenaw Ave & Golfside Road,N- Washtenaw Ave east Golfside,0,
42.288673,0,1674,-83.748342,809,,,117 W Summit St & N Main St,S- WSummit btw Hiscock and Main,0,
42.289007,0,1673,-83.750666,808,,,W Summit St & Daniel St,S- W Summit east of Daniel St.,0,
42.248859,0,1212,-83.648702,353,,,Washtenaw Ave & N Hewitt Road,N- Washtenaw Ave west Hewitt,0,
42.248557,0,1211,-83.646383,352,,,Washtenaw Ave & N Hewitt Road,N- Washtenaw east of Hewitt,0,
42.248058,0,1210,-83.642618,351,,,Washtenaw Ave & Berkley Ave,N- Washtenaw Ave. west of Berkeley,0,
42.247431,0,1209,-83.637478,350,,,Washtenaw Ave & N Mansfield St,N- Washtenaw Ave west Mansfield,0,
42.293363,0,1668,-83.758369,803,,,Brooks Road & Robin Road,W- Brooks south of Robin,0,
42.296371,0,1667,-83.758581,802,,,Sunset Road & Brooks Road,S- Sunset at Brooks,0,
42.297459,0,1666,-83.764318,801,,,Sunset Road & Pomona Road,S- Sunset east of Pomona,0,
42.297608,0,1665,-83.765879,800,,,Newport Road & Sunset Road,W- Newport at Sunset,0,
42.288989,0,1672,-83.752725,807,,,W Summit St & Spring St,S- W Summit at Spring,0,
42.288926,0,1671,-83.755874,806,,,W Summit St & Miner St,S- W Summit at Miner,0,
42.25286,0,1218,-83.674613,359,,,Washtenaw Road & Glencoe Hills Dr,N- Washtenaw Ave west of Glencoe,0,
42.291244,0,1669,-83.758307,804,,,Brooks Road & Mixtwood,W- Brooks south of Mixtwood,0,
42.309844,0,2645,-83.717014,1788,,,TUEBINGEN PKWY & LANCASHIRE ST,E- Teubingen at Lancashire,0,
42.311155,0,2646,-83.712567,1789,,,TRAVER RD & LAKEHURST LN,S- Traver opposite Lakehurst,0,
42.291118,0,1632,-83.771492,768,,,,S- Miller Ave. opp Saunders Crese,0,
42.289472,0,1633,-83.767188,769,,,Miller Ave & Newport Pl,S- Miller Ave. west of Newport Rd.,0,
42.288372,0,1070,-83.682508,213,,,EARHART RD & GLAZIER WAY,N-Glazier Way west of Earhart,0,
42.28823,0,1064,-83.684008,210,,,Glazier Way & N Earhart Road,S Glazier Way west of Earhart,0,
42.285319,0,2428,-83.679786,211,,,Green Hills Dr & N Earhart Road,Green Hills School,0,
42.3112,0,2636,-83.713092,1780,,,TRAVER RD & LAKEHURST LN,N - Traver west of Lakehurst,0,
42.309791,0,2637,-83.717246,1781,,,TUEBINGEN PKWY & LANCASHIRE ST,W - Teubingen south of Lancashire,0,
42.279276,0,1624,-83.780161,760,,,2424 W Stadium Blvd & Abbott Ave,E- W Stadium Blvd at Abbot,0,
42.280933,0,1625,-83.78021,761,,,N Maple Road & Jackson Road,E- N Maple north of Jackson Rd.,0,
42.294688,0,2641,-83.719029,1784,,,MURFIN AVE & HUBBARD ST,E - Murfin at Hubbard,0,
42.291811,0,1631,-83.773292,767,,,Miller Ave & Bruce St,S- Miller Ave. east of Bruce,0,
42.293837,0,1628,-83.780693,764,,,N Maple Road & N Circle Dr,E- N Maple north of North Circle,0,
42.296727,0,1076,-83.69239,219,,,GREEN RD & FREDERICK DR,E- Green Rd north of Frederick St,0,
42.207292,0,2825,-83.699329,2008,,,PLATT RD & TIMBER GLEN DR,W- Platt at Multicultural School,0,
42.316189,0,2631,-83.732217,1775,,,1580 DHU VARREN RD & HUNLEY DR,S - Dhu Varren E of Hunley,0,
42.239269,0,1976,-83.635655,1111,,,S Congress St & S Mansfield St,S- Congress at Mansfield,0,
42.274273,0,2633,-83.743214,1777,,,THOMPSON ST & E MADISON ST,W -Thompson at Madison,0,
42.277692,0,2632,-83.73452,1776,,,GEDDES AVE & CHURCH ST,N.Geddes at CCTC,0,
42.228271,0,1968,-83.62452,1103,,,Jefferson Ave & 1st Ave,N- Jefferson at First,0,
42.266348,0,1940,-83.573723,1075,,,Wiard Blvd & Bazley Blvd,S- Wiard opposite Bazley,0,
42.311626,0,2635,-83.709428,1779,,,TRAVER RD & HAVERHILL CT,N - Traver at Logan School,0,
42.274175,0,2634,-83.742982,1778,,,THOMPSON ST & E MADISON ST,E-Thompson  at Madison,0,
42.267102,0,1935,-83.588687,1070,,,Mac Arthur Blvd & Deering St,E- MacArthur Blvd. north of Deering,0,
42.206916,0,2826,-83.699196,2009,,,PLATT RD & TIMBER GLEN DR,E- Platt at Multicultural School,0,
42.284116,0,2160,-83.792952,1294,,,Jackson Road & Parklake Ave,S- Jackson Rd. west of Parklake,0,
42.295759,0,2537,-83.731241,1678,,,Plymouth Ann Arbor Road & Jones Dr,S -Plymouth Rd east of Jones,0,
42.249185,0,2531,-83.740146,1674,,,State St Park & Ride Cir & S State St,State St. Commuter Lot,0,
42.246535,0,1141,-83.616056,283,,,N Adams St & Olive St,E- Adams St. north of Cross Street,0,
42.317079,0,2536,-83.716952,1677,,,DHU VARREN RD & OMLESAAD DR,N-Dhu Varren E of Omlesaad,0,
42.24578,0,1145,-83.622499,287,,,W Cross Ave & College St,N- Cross St. west of College Placs,0,
42.316909,0,2533,-83.717002,1673,,,DHU VARREN RD & OMLESAAD DR,S-Dhu Varren & Olmesaad,0,
42.235885,0,1962,-83.610714,1097,,,Chidister St & Catherine St,W- Chidester between Catherine an,0,
42.287762,0,2025,-83.706865,1159,,,Glazier Way & Huron Pkwy,N- Glazier Way at UM Day Care Cent,0,
42.273835,0,1543,-83.779961,679,,,S Maple Road & W Liberty Road,E- S Maple north of Liberty,0,
42.308061,0,2650,-83.713354,1793,,,S HURON PKWY & TRAVERWOOD DR,S- Huron Pkwy east of Traverwood,0,
42.286433,0,2021,-83.732902,1155,,,Fuller St & Maiden Lane,N- Fuller Rd. west of Maiden Ln,0,
42.286464,0,2020,-83.731703,1154,,,Fuller St & Maiden Lane,S- Fuller Rd. east of E. Medical,0,
42.25213,0,2023,-83.749589,1157,,,S Main St & Fieldcrest Dr,E- S Main St opp Fieldcrest,0,
42.233659,0,1963,-83.616612,1098,,,Harriet Ave & S Adams St,N- Harriet west of S Adams,0,
42.278399,0,2016,-83.747358,1150,,,S 4TH AVE & BTC MALL DR,Blake Transit Center,0,
42.283393,0,2019,-83.735561,1153,,,Glen Ave & Catherine St,E- Glen St. north of Catherine,0,
42.267996,0,1537,-83.774476,673,,,Pauline Blvd & Marvin Gardens,N- Pauline at Park Place Apts.,0,
42.274103,0,1120,-83.671289,263,,,N DIXBORO RD & OLD DIXBORO RD,W- Dixboro south of Geddes,0,
42.274581,0,1119,-83.682222,262,,,GEDDES RD & EARHART RD,S- Geddes Rd at Earhart Rd,0,
42.276722,0,1118,-83.691237,261,,,Geddes Road & Sumac Lane,S- Geddes Rd. east of Sumac Lane,0,
42.277401,0,1117,-83.698019,260,,,Geddes Road & Huron Pkwy,S- Geddes Rd east of Huron Parkway,0,
42.266554,0,1124,-83.65586,267,,,St Joe Visitors & McAuley Dr,St. Joseph Hospital at Main Vi,0,
42.264176,0,1123,-83.66393,266,,,WCC North Entrance,WCC at Student Center Building,0,
42.308258,0,2649,-83.713317,1792,,,S HURON PKWY & TRAVERWOOD DR,N- Huron Pkwy opposite Traverwood,0,
42.193623,0,2827,-83.721114,2010,,,TIMBER LN & E MICHIGAN AVE,E- Timber Ln north of Michigan,0,
42.293635,0,2411,-83.712635,1550,,,BEAL AVE & HAYWARD ST,W -  Beal south of Hayward,0,
42.293573,0,2413,-83.712428,1552,,,BEAL AVE & HAYWARD ST,E- Beal at Hayward,0,
42.185063,0,2829,-83.73858,2012,,,E MICHIGAN AVE & MOON RD,S-Micigan Ave east of Moon,0,
42.302456,0,2414,-83.706796,1558,,,PLYMOUTH RD & NIXON RD,S- Plymouth Rd east of Nixon,0,
42.246554,0,2302,-83.680613,1418,,,CARPENTER RD & PACKARD ST,W - Carpenter Rd. north of Packard,0,
42.235071,0,1916,-83.583592,1051,,,ECORSE RD & DUBIE RD,N- Ecorse Rd. west of Harris,0,
42.25963,0,1397,-83.651625,535,,,E Huron River Dr & Elmwood Dr,S- Clark Rd. east of Elmwood,0,
42.259522,0,1396,-83.655065,534,,,Clark Road & Chateau Vert St,S- Clark Rd. east of Chateau Vert,0,
42.306117,0,2648,-83.709707,1791,,,S HURON PKWY & PLYMOUTH RD,N- Huron Pkwy west of Nixon,0,
42.259248,0,1394,-83.663552,532,,,4870 W CLARK RD & E HURON RIVER DR,S- Clark  west of Golfside,0,
42.258271,0,1391,-83.67556,530,,,Glencoe Hills Dr & Clark Road,E- Glencoe Hills south of Clark Rd,0,
42.268324,0,1532,-83.760586,668,,,Pauline Blvd & Van Dusen Dr,N- Pauline opp VanDusen St.,0,
42.304987,0,2298,-83.693262,1414,,,Plymouth Ann Arbor Road & Green Road,N- Plymouth Rd. west of Green Rd.,0,
42.241006,0,2299,-83.619651,1415,,,Congress Ave & Ballard St,S- Congress west of Ballard,0,
42.252986,0,2300,-83.680815,1416,,,Carpenter Road & Washtenaw Road,W- Carpenter Rd. south of Washtenaw,0,
42.249118,0,2301,-83.68069,1417,,,Carpenter Road & Central Blvd,W- Carpenter Rd. south of Central,0,
42.307651,0,1018,-83.734698,164,,,Arrowwood Trl & Pontiac Trl,N- Arrowwood Trail at Pontiac Tra,0,
42.283275,0,1639,-83.749304,775,,,Miller Ave & N Main St,S- Miller Ave. east of Ashley,0,
42.274569,0,2578,-83.775131,1723,,,W Liberty St & Burwood Ave,N- Liberty east of Burwood,0,
42.254474,0,2192,-83.622097,1326,,,N HURON ST & LEFORGE RD,N- Huron River Dr. east of LeForge,0,
42.257475,0,2193,-83.661287,1327,,,GOLFSIDE DR & BYNAN DR,W- Golfside Rd. south of Bynan,0,
42.258304,0,1847,-83.55408,982,,,E Clark Road & Wiard Blvd,S- Clark Rd. at Ridge Rd.,0,
42.254421,0,1848,-83.553954,983,,,Ridge Road & Holmes Road,W- Ridge Rd. at Holmes Rd.,0,
42.253146,0,2194,-83.661176,1328,,,GOLFSIDE DR & TWIN LAKES DR,W- Golfside Rd. north of S Twin Lakes,0,
42.251569,0,2195,-83.661096,1329,,,Golfside Road & Washtenaw Ave,W- Golfside Rd. north of Washtenaw,0,
42.254058,0,1851,-83.563027,986,,,HOLMES RD & WILDWOOD RD,N- Holmes Rd. at Wildwood Rd,0,
42.285063,0,1641,-83.748217,777,,,N Main St & E Kingsley St,E- N Main St north of King,0,
42.311447,0,2647,-83.709587,1790,,,TRAVER RD & LAKEHURST LN,S- Traver op Logan School,0,
42.283192,0,1640,-83.747281,776,,,Catherine St & N 4th Ave,S- Catherine St. at Fourth Ave,0,
42.280261,0,2727,-83.738459,1907,,,E WASHINGTON ST & S OBSERVATORY ST,S -Washington btw Thayer & Fletcher,0,
42.286731,0,1635,-83.760151,771,,,Miller Ave & Arbor View Blvd,S- Miller Ave. west of Arborview,0,
42.287975,0,1634,-83.763404,770,,,Miller Ave & Wesley St,S- Miller Ave. west of Wesley,0,
42.317717,0,2691,-83.695612,1859,,,Green Road & Kilburn Park Cir,N- Green Rd west of Kilburn,0,
42.285279,0,1637,-83.756459,773,,,Miller Ave & Miner St,S- Miller Ave. btw Gott and Ms.,0,
42.246553,0,2303,-83.680421,1419,,,Carpenter Road & Packard Road,E- Carpenter Rd. north of Packard,0,
42.244911,0,1289,-83.665547,429,,,Packard Road & Spice Tree Apt,S- Packard at Foster,0,
42.31237,0,1659,-83.76594,1525,,,Lowell Road & Holyoke Lane,E- Lowell south of Holyoke,0,
42.246825,0,2238,-83.755949,1526,,,Oakbrook Dr & Northbrook Pl,S- Oakbrook Dr west of Northbrook,0,
42.246222,0,1453,-83.758963,1527,,,W EISENHOWER PKWY & W EISENHOWER CIR,S- Eisenhower Pkw east of Ann Arb,0,
42.259147,0,2387,-83.667859,1520,,,W CLARK RD & E HURON RIVER DR,S- Clark Rd at Arbor Pointe Apt,0,
42.250278,0,2399,-83.749361,1521,,,S Main St & Lake Village Dr,E- S Main St north of Lake Villag,0,
42.316578,0,2280,-83.702687,1399,,,Green Road & Whisperwood Dr,N- Green Rd at Whisperwood,0,
42.290251,0,2166,-83.716727,1523,,,Bonisteel Blvd & Murfin Ave,S- Bonisteel E of Murfin,0,
42.289497,0,2278,-83.758216,1397,,,Brooks Road & W Summit St,W- Brooks north of W. Summit,0,
42.314768,0,2277,-83.76741,1396,,,2752 Holyoke Lane & Lowell Road,N- Holyoke at 2752 Holyoke,0,
42.289062,0,2276,-83.75076,1395,,,W Summit St & Daniel St,N- W Summit east of Daniel,0,
42.238872,0,1282,-83.680166,422,,,CARPENTER RD & COACHVILLE CIR,E- Carpenter north of Coachville S,0,
42.254313,0,2274,-83.752357,1393,,,Ann Arbor Saline Road & S Main St,E- Ann Arbor-Saline Rd. at S. Main,0,
42.243676,0,2273,-83.754297,1392,,,W Eisenhower Pkwy & Signature Blvd,S- Eisenhower west of Signature,0,
42.247806,0,2272,-83.749284,1391,,,S Main St & Harbor Way,E- S Main St at HarborWay,0,
42.287508,0,1167,-83.718028,308,,,Fuller St & Bonisteel Blvd,N- Fuller Rd  east of Bo,0,
42.284284,0,1164,-83.701349,305,,,Huron Pkwy & Lakehaven Dr,E- Huron Parkway south of Lakehaven,0,
42.268744,0,1720,-83.70758,855,,,Arlington Blvd & Aberdeen Dr,E- Arlington north of Aberdeen,0,
42.274423,0,1160,-83.672555,301,,,Geddes Road & N Dixboro Road,N- Geddes Rd btw Dixboro Road and,0,
42.274679,0,1161,-83.681502,302,,,GEDDES RD & S HURON PKWY,N- Geddes Rd. at Earhart,0,
42.276743,0,1162,-83.691031,303,,,Geddes Road & Sumac Lane,N- Geddes Rd. west of Sumac Lane,0,
42.237256,0,2447,-83.763272,1588,,,Oak Valley Dr & Weatherstone Dr,N- Oak Valley W of Weatherstone,0,
42.287845,0,1165,-83.704345,306,,,Glazier Way & Huron Pkwy,N- Glazier Way west of Huron Pkw,0,
42.258318,0,2751,-83.709562,1932,,,MANCHESTER RD,S - Manchester s of Island,0,
42.268622,0,1529,-83.750679,665,,,Pauline Blvd & S Main St,N- Pauline west of Main St.,0,
42.239029,0,2756,-83.740249,1937,,,HILTON BLVD,Kensington Court,0,
42.285097,0,2755,-83.778985,1936,,,DEXTER AVE,N- Dexter east of Maple,0,
42.297358,0,2753,-83.781087,1934,,,N MAPLE RD,West side of N.Maple south of Foss,0,
42.205624,0,2758,-83.356112,1939,,,JOHN DINGELL DR,DTW - McNamara,0,
42.223684,0,2757,-83.345647,1938,,,W G ROGELL DR,DTW - North Terminal,0,
42.2632,0,1692,-83.706953,827,,,Arlington Blvd & Bedford Road,W- Arlington at Bedford,0,
42.259155,0,1712,-83.716507,847,,,Medford Road & St Francis Dr,S- Medford east of St  Francis,0,
42.260242,0,1711,-83.715895,846,,,St Francis Dr & E Stadium Blvd,W- St. Francis south of EStadium,0,
42.260978,0,1710,-83.721305,845,,,E Stadium Blvd & Cayuga Pl,S- E Stadium east of Cayuga Pl.,0,
42.260915,0,1709,-83.723638,844,,,E Stadium Blvd & Ferdon Road,S- E Stadium east of Ferdon,0,
42.260762,0,1708,-83.728343,843,,,E Stadium Blvd & Packard St,S- E Stadium east of Packard,0,
42.26063,0,1707,-83.73456,842,,,E Stadium Blvd & Woodbury Dr,S- E Stadium btw Woodbury and,0,
42.261112,0,1706,-83.736676,841,,,E Stadium Blvd & S Industrial Hwy,S- E Stadium east of South Indust,0,
42.263746,0,1705,-83.74487,840,,,E Stadium Blvd & S Main St,S- Stadium opposite Kipke,0,
42.273046,0,1686,-83.713045,821,,,Geddes Ave & Shipman Cir,S- Geddes Ave. east of Shipman Ci,0,
42.264771,0,1718,-83.706992,853,,,Arlington Blvd & Provincial Dr,E- Arlington south of Provincial,0,
42.256724,0,1714,-83.711192,849,,,Medford Road & Manchester Road,S- Medford at Manchester,0,
42.257433,0,1713,-83.71433,848,,,Medford Road & Needham Road,S- Medford east of Needham,0,
42.249922,0,2199,-83.619145,1333,,,Lowell St & E Circle Dr,W- Lowell south of East Circle Dr,0,
42.268423,0,2287,-83.586512,1406,,,Mac Arthur Blvd & Stamford Road,E- MacArthur Blvd north of Stamford,0,
42.259448,0,1395,-83.658742,533,,,3075 Clark Road & Golfside Road,S- Clark east of Golfside (3075 Cl,0,
42.270202,0,1688,-83.709225,823,,,Arlington Blvd & Devonshire Road,W- Arlington at Devonshire,0,
42.307736,0,2442,-83.692782,1583,,,GREEN RD & COMMONWEALTH BLVD,W- Green S of Commonwealth,0,
42.275316,0,1349,-83.740666,488,,,S State St & S University Ave,E- S State St north of SU,0,
42.271123,0,1347,-83.740574,486,,,S State St & Packard St,E- S State St north of Packard,0,
42.310587,0,2441,-83.692937,1582,,,3000 Green Road & Commonwealth Dr,W- Green op Post Office,0,
42.211829,0,2804,-83.592308,1986,,,S HURON RIVER DR & HIGH RIDGE DR,S- Huron River Dr at High Ridge Dr.,0,
42.208662,0,2805,-83.577665,1987,,,S HURON RIVER DR & FORD LAKE PARK DR,W- Huron River at Ford Lake Park Dr,0,
42.270376,0,1738,-83.758354,873,,,S 7th St & W Davis Ave,W- S 7th St opposite Davis,0,
42.209623,0,2800,-83.618882,1982,,,WHITTAKER RD,W- Whittaker south of Stonycreek,0,
42.211637,0,2801,-83.604453,1983,,,S HURON RIVER DR & HUBBARD ST,S- Huron River at Hubbard St,0,
42.216741,0,2798,-83.619226,1980,,,HURON ST & BRINKER DR,W-Huron north of Morgan,0,
42.214551,0,2799,-83.619306,1981,,,WHITTAKER RD & MORGAN RD,W- Whittaker south of Morgan,0,
42.248585,0,2497,-83.756717,1638,,,Oakbrook Dr & Rolling Meadows Dr,E- Oakbrook S of Rolling Meadows,0,
42.208974,0,2498,-83.615958,1639,,,CIVIC CENTER DR,Ypsilanti District Library,0,
42.290251,0,2532,-83.738701,1672,,,MOORE ST & TRAVER RD,N - Moore W of Traver Rd,0,
42.202903,0,2806,-83.577516,1988,,,TEXTILE RD & TUTTLE HILL RD,N- Textile at Colony Park Dr.,0,
42.202931,0,2807,-83.582843,1989,,,TEXTILE RD & S MIAMI ST,N- Textile west of Tuttle Hill,0,
42.247509,0,2035,-83.575093,1169,,,E Michigan Ave & Utah,N- Michigan Ave. east of Lemay,0,
42.277758,0,1617,-83.759622,753,,,W Liberty St & S 7th St,N- W Liberty at Eighth,0,
42.2785,0,1616,-83.755991,752,,,W Liberty St & 5th St,N- W Liberty opp Fifth St.,0,
42.278905,0,1615,-83.754034,751,,,W Liberty St & 3rd St,N- W Liberty at Third St.,0,
42.25801,0,1846,-83.562377,981,,,E Clark Road & Wiard Blvd,S- Clark Rd. at Ford Elementary,0,
42.275238,0,1621,-83.771906,757,,,W Liberty St & Dartmoor Road,N- W Liberty west of Dartmoor,0,
42.276285,0,1620,-83.766726,756,,,W Liberty St & Virginia Ave,N- W Liberty west of Virginia,0,
42.277005,0,1619,-83.763322,755,,,W LIBERTY ST & CREST ST,N- W Liberty at Crest,0,
42.245591,0,1423,-83.73019,560,,,S Industrial Hwy & E Eisenhower Pkwy,E- South Industrial north of Eise,0,
42.247245,0,1424,-83.730873,561,,,S Industrial Hwy & AATA Garage Dr,E- South Industrial Hwy. at AATA,0,
42.277337,0,1623,-83.778683,759,,,2370 W Stadium Blvd & Collingwood Ave,E- W Stadium north of Collingwood,0,
42.274844,0,1622,-83.77703,758,,,2260 W Stadium Blvd & W Liberty St,E- W Stadium north of Liberty,0,
42.255237,0,1427,-83.735127,564,,,S INDUSTRIAL HWY & ROSEWOOD ST,E- S Industrial Hwy. north of Rose,0,
42.257054,0,1428,-83.736386,565,,,S Industrial Hwy & Astor Ave,E- S Industrial Hwy. north of Asto,0,
42.259785,0,1429,-83.737157,566,,,S Industrial Hwy & Stimson St,E- S Industrial Hwy. between Astor,0,
42.260577,0,1430,-83.738732,567,,,Stimson St & White St,N- Stimson east of White St.,0,
42.236748,0,1974,-83.643258,1109,,,Congress St & Merrill Ave,S- Congress west of Merrill,0,
42.239036,0,2450,-83.767547,1591,,,S Meijer & Bent Trail Dr,Meijer Saline South Side,0,
42.298996,0,1085,-83.717447,228,,,Plymouth Ann Arbor Road & Village Green Road,N- Plymouth Rd. west of Bishop St,0,
42.300878,0,1084,-83.714094,227,,,Plymouth Ann Arbor Road & Beal Ave,N- Plymouth Rd. opp Beal St.,0,
42.30254,0,1083,-83.710006,226,,,Plymouth Ann Arbor Road & Huron Pkwy,N- Plymouth Rd. west EPA Lab drivew,0,
42.302716,0,1082,-83.702726,225,,,2929 Plymouth Ann Arbor Road & Prairie St,N- Plymouth Rd. west Prairie St.,0,
42.303905,0,1080,-83.697145,223,,,Commonwealth Dr,N- Plymouth Rd. west of Commonwealt,0,
42.280247,0,2457,-83.742494,1598,,,E Washington St & S State St,S- Washington at Parking Stucture,0,
42.29883,0,1077,-83.692518,220,,,Green Road & Baxter Road,E- Green Rd North of Greenbrier,0,
42.241023,0,1866,-83.61235,1001,,,W Michigan Ave & N Huron St,S- Michigan Ave. east of Huron,0,
42.234226,0,1331,-83.719598,470,,,Stone School Road & Champagne Dr,E- Stone School  @Stone School Ci,0,
42.241146,0,1901,-83.609477,1036,,,E MICHIGAN AVE & S RIVER ST,N- Michigan Ave. west of River St.,0,
42.275647,0,2657,-83.743073,1800,,,Thompson St & E Jefferson St,E- Thompson n of Richard Kennedy Dr,0,
42.281349,0,1586,-83.746985,722,,,E Huron & S 4th Ave,S- W Huron east of Fourth Ave.,0,
42.283889,0,1590,-83.752604,726,,,,N- Miller Ave. west of Spring St.,0,
42.285341,0,1591,-83.756377,727,,,,N- Miller Ave. west of Miner St,0,
42.283318,0,1588,-83.74749,724,,,Catherine St & N 4th Ave,N- Catherine St. west of S.Fourth,0,
42.283361,0,1589,-83.75006,725,,,Miller Ave & N Ashley St,N- Miller Ave. west of Ashley,0,
42.258058,0,1431,-83.740178,568,,,S State St & Stimson St,E- S State St south of Stimson,0,
42.241199,0,1899,-83.604208,1034,,,E MICHIGAN AVE & S PARK ST,N- Michigan Ave. west of Grove,0,
42.232485,0,1896,-83.601749,1531,,,GROVE ST & S PROSPECT ST,W- Grove Rd. north of Tyler,0,
42.28136,0,1585,-83.74905,721,,,W HURON ST & N MAIN ST,S- W Huron west of Main,0,
42.314751,0,2586,-83.734197,1745,,,PONTIAC TRL & KNIGHTSBRIDGE CIR,E - Pontiac Trl n of Knightsbridge,0,
42.316359,0,2587,-83.732119,1746,,,DHU VARREN RD & HUNLEY DR,N -Dhu Varren west of Hunley,0,
42.248758,0,2604,-83.740272,1747,,,State St Park & Ride,UM Commuter Lot,0,
42.285957,0,1592,-83.75795,728,,,Miller Ave & Brooks Road,N- Miller Ave. east of Brooks,0,
42.278518,0,2595,-83.738681,1743,,,N UNIVERSITY AVE & S THAYER ST,Ingalls Mall,0,
42.251051,0,1468,-83.700159,605,,,Platt Road & Edgewood Dr,E- Platt Rd. north of Edgewood,0,
42.286087,0,1004,-83.74343,150,,,N DIVISION ST & DETROIT ST,E- Division St opposite Detroit St.,0,
42.25362,0,2032,-83.568699,1166,,,Spencer Lane & Holmes Road,W- Spencer Ln south of Holmes,0,
42.249352,0,2033,-83.568551,1167,,,Spencer Lane & E Michigan Ave,W- Spencer Ln at Michigan Ave,0,
42.246155,0,2075,-83.627633,1209,,,Washtenaw Ave & W Forest Ave,N- Washtenaw Ave west of McKenny,0,
42.243293,0,1255,-83.719885,395,,,Stone School Road & E Eisenhower Pkwy,W- Stone School Rd s of Eisenhower,0,
42.245697,0,1466,-83.700038,603,,,Platt Road & Packard Road,E- Platt Rd. north of Packard,0,
42.244918,0,1465,-83.703562,602,,,Packard Road & Nordman Road,S- Packard east of Nordman,0,
42.29935,0,1012,-83.723913,158,,,Plymouth Ann Arbor Road & Point Lane,N- Plymouth Rd east of Pointe Ln,0,
42.230586,0,2370,-83.671318,1484,,,Ellsworth Road & Beech Dr,N- Ellsworth Rd. west of Pallisades,0,
42.243019,0,2067,-83.743427,1201,,,PLAZA RD,E- Plaza N of Briarwood Cir,0,
42.242807,0,2066,-83.743619,1200,,,Plaza Road & Briarwood Cir,W- Plaza Rd. n Briarwood Circle,0,
42.2793,0,2068,-83.751682,1202,,,W Liberty St & Ann Arbor Railroad,S- W Liberty west of Railroad Track,0,
42.255548,0,2720,-83.689685,1899,,,Washtenaw & Pittsfield Blvd,S- Washtenaw east of Pittsfield,0,
42.282276,0,2082,-83.733364,1216,,,Zina Pitcher Ave & E Huron,S- Ann east of Zina Pitcher,0,
42.285222,0,1800,-83.779905,935,,,Dexter Ave & Dexter Ann Arbor Road,S- Dexter Rd. east of Maple,0,
42.23003,0,1329,-83.714156,468,,,E Ellsworth Road & Shadowood Dr,N- Ellsworth Rd. west of Shadowootr,0,
42.230462,0,1824,-83.648906,959,,,Ellsworth Road & Fairhills Dr,S- Ellsworth at Wal-Mart,0,
42.241177,0,1900,-83.607074,1035,,,E MICHIGAN AVE & N LINCOLN ST,N- Michigan Ave. east of Lincoln St,0,
42.28134,0,2080,-83.738597,1214,,,E Huron & N Thayer St,N- E Huron  west of Ingalls,0,
42.230656,0,1816,-83.645316,951,,,2216 Ellsworth Road & Hewitt Road S,N- Ellsworth Rd. west of Hewitt,0,
42.2307,0,1815,-83.639287,950,,,Ellsworth Road & W Michigan Ave,N- Ellsworth  west of Michigan Ave,0,
42.230379,0,1818,-83.656366,953,,,2940 Ellsw Child Guidance ctr & Roundtree Blvd,N- Ellsworth Rd. west of Clubview,0,
42.281216,0,2081,-83.738214,1215,,,E Huron & N Ingalls St,S- E Huron  opposite Ingalls,0,
42.230422,0,1820,-83.665536,955,,,Ellsworth Road & Cloverlawn Dr,N- Ellsworth west of Cloverlawn St,0,
42.230308,0,1819,-83.661906,954,,,Ellsworth Road & Golfside Road,N- Ellsworth west of Golfside Blvd,0,
42.230164,0,1822,-83.660476,957,,,Ellsworth Road & Golfside Road,S- Ellsworth Rd. east of Golfside,0,
42.230269,0,1821,-83.664953,956,,,Ellsworth Road & Cloverlawn Dr,S- Ellsworth opposite Cloverl,0,
42.231906,0,2331,-83.57042,1447,,,TYLER RD & ZEPHYR ST,N- Tyler Rd. opp. Zephyr,0,
42.237965,0,1975,-83.639625,1110,,,Congress St & Stevens Dr,S- Congress at Stephens Dr.,0,
42.240926,0,1978,-83.62909,1113,,,Congress Ave & Oakwood St,S- Congress opp Oakwood (Recng,0,
42.240193,0,1977,-83.632795,1112,,,S Congress St & N Wallace Blvd,S- Congress at Wallace,0,
42.287425,0,1980,-83.78595,1115,,,Dexter Ann Arbor Road & Archwood Dr,N- Dexter Rd. east of Archwood,0,
42.240963,0,1979,-83.624401,1114,,,Congress Ave & S Summit St,S- Congress east of Summit,0,
42.29035,0,1982,-83.794667,1117,,,Dexter Ann Arbor Road & Landings Blvd,N- Dexter Rd. east of Landings Blvd,0,
42.289285,0,1981,-83.791108,1116,,,Dexter Ann Arbor Road & Barber Ave,N- Dexter Rd. east of Barber,0,
42.307981,0,2417,-83.734806,1560,,,PONTIAC TRL & ARROWWOOD TRL,E- Pontiac Trl at Arrowwood Trl,0,
42.242981,0,2159,-83.736561,1293,,,Wolverine Towers Dr & E Eisenhower Pkwy,S- Wolverine Tower at Entrance #C,0,
42.306265,0,2418,-83.735028,1562,,,PONTIAC TRL,W- Pontiac S of Arrowwood,0,
42.316811,0,2419,-83.70749,1563,,,NIXON RD & GREEN RD,E- Nixon at Green,0,
42.286422,0,2420,-83.713979,1564,,,VA Hospital & Glazier Way,VA Med Ctr. main,0,
42.27352,0,2421,-83.779429,1565,,,W Liberty St & S Maple Road,S- W Liberty E of S Maple,0,
42.267853,0,2333,-83.774289,1449,,,PAULINE BLVD & PENNSYLVANIA AVE,S- Pauline west of Stadium Blvd.  S,0,
42.223549,0,2824,-83.699553,2007,,,PLATT RD,E- Platt at Lillie Park,0,
42.229522,0,1967,-83.619685,1102,,,Hawkins St & Jefferson Ave,W- Hawkins north of Jefferson,0,
42.254487,0,1470,-83.696637,607,,,Huron Pkwy & Professional Dr,E- Huron Pkwy at Arlington Apts (ne,0,
42.230249,0,1327,-83.707138,466,,,E Ellsworth Road & Braeburn Cir,N- Ellsworth Rd. west of Braeburn,0,
42.25202,0,2227,-83.621399,1360,,,Ann St & St Johns St,W- Ann St. south of Pittman/Puttman,0,
42.295118,0,2572,-83.703099,1712,,,Hubbard St & Huron Pkwy,N-Hubbard east of Huron Parkway,0,
42.295149,0,2571,-83.70012,1711,,,Hubbard St & Stone Road,N- Hubbard opposite Stone,0,
42.244537,0,1321,-83.700155,460,,,Platt Road & Packard Road,W- Platt Rd. south of Packard Rd,0,
42.261265,0,2618,-83.5906,1762,,,E Clark Road & Clark Dr,N - Clark Rd east of Clark Dr,0,
42.281387,0,2029,-83.745051,1163,,,E Huron & N Division St,N- E Huron west of Division,0,
42.268753,0,1689,-83.707693,824,,,Arlington Blvd & Aberdeen Dr,W- Arlington north of Aberdeen,0,
42.295106,0,2619,-83.781297,1763,,,Miller Ave & N Maple Road,N - Miller west of N Maple,0,
42.273499,0,1348,-83.740633,487,,,S State St & Monroe St,E- S State St. north of Monroe,0,
42.224611,0,2581,-83.562765,1717,,,MCCARTNEY AVE & CEDARCLIFF DR,E- McCartney at State,0,
42.268095,0,1346,-83.737546,485,,,Packard St & E University Ave,E- Packard opposite McKinely,0,
42.265958,0,1345,-83.73521,484,,,Packard St & Dewey St,E- Packard opp Dewey north of Wells,0,
42.264526,0,1344,-83.733682,483,,,Packard St & Granger Ave,E- Packard north of Granger,0,
42.261853,0,1343,-83.7308,482,,,Packard St & Shadford Road,E- Packard north of Shadford,0,
42.259064,0,1342,-83.728567,481,,,Packard St & South Blvd,E- Packard north of South Blvd.,0,
42.257032,0,1341,-83.727133,480,,,Packard St & Anderson Ave,E- Packard north of Anderson,0,
42.265379,0,2664,-83.779082,1807,,,Pauline Blvd & S Maple Road,S - Pauline east of S Maple,0,
42.240793,0,1370,-83.740712,509,,,Briarwood Cir Dr & S State St,S- Briarwood Cir Dr west of State,0,
42.27812,0,2662,-83.743151,1805,,,Thompson St & E William St,E - Thompson north of William,0,
42.237954,0,2617,-83.759419,1761,,,S Lohr Road & Weatherstone Dr,W - Lohr Rd s of Weatherstone,0,
42.287634,0,2692,-83.70891,1860,,,Glazier Way & Unknown,S - Glazier Way at Arbor Crest,0,
42.290465,0,2432,-83.717718,1714,,,BONISTEEL BLVD & BEAL AVE,N - Bonisteel east of Murfin,0,
42.23951,0,1333,-83.719896,472,,,Stone School Road & Birch Hollow Dr,E- Stone School north of Birch Hol,0,
42.241108,0,1334,-83.719775,473,,,Stone School Road & Baylis Dr,E- Stone School north of Baylis,0,
42.276216,0,2817,-83.688295,2000,,,GEDDES RD & HIGH ORCHARD DR,S - Geddes at High Orchard Dr,0,
42.276369,0,2818,-83.6886,2001,,,GEDDES RD & HIGH ORCHARD DR,N- Geddes at High Orchard Dr,0,
42.248759,0,1337,-83.720729,476,,,Packard Road & King George Blvd,E- Packard south of King George,0,
42.251929,0,1338,-83.723322,477,,,Packard Road & Pine Valley Blvd,E- Packard north of Pine Valley,0,
42.243769,0,1335,-83.719713,474,,,STONE SCHOOL RD & E EISENHOWER PKWY,E- Stone School south of Eisenhowe,0,
42.251019,0,2228,-83.620619,1361,,,SAINT JOHN & ANN ST,W- Ann St. north of East Circle D,0,
42.262069,0,2697,-83.659592,1865,,,Golfside Road & Clark Road,E - Golfside at Morris Lawrence,0,
42.251541,0,1217,-83.667801,358,,,Washtenaw Road & Deake St,N- Washtenaw Ave. opp Deake St,0,
42.254993,0,1340,-83.72569,479,,,Packard Road & Eastover Pl,E- Packard north of Eastover,0,
